"Name","Organisation","Branch","Type","Country","Building","Address","Postcode","L1","L2","L3","Lat","Lon","Phone1","Phone2","Email","Fax","Comments"
"Timor-Leste Red Cross Society (CVTL) National Headquarters","Timor-Leste Red Cross Society",,"Headquarters","TL","Rumbia","Rua Cristo Rei, Bidau Santa Ana, Dili, Timor-Leste",,"Dili","Vera Cruz","Caicoli","-8.56262","125.57919",,,,,
"Ainaro Branch Office","Timor-Leste Red Cross Society",,"Field","TL","Maulore","Maulore",,"Ainaro","Ainaro","Ainaro","-8.99508","125.49941",,,,,
"Lospalos Branch Office","Timor-Leste Red Cross Society",,"Field","TL","Lospalos","Lospalos",,"Lautem","Lospalos","Fuiloro","-8.51994","126.99433",,,,,
"Manatuto Branch Office","Timor-Leste Red Cross Society",,"Field","TL","Lahuoae","Lahuoae",,"Manatuto","Manatuto","Sau","-8.52083","126.00694",,,,,
"Same Branch Office","Timor-Leste Red Cross Society",,"Field","TL","Same","Same",,"Manufahi","Same","Letefoho","-9.00362","125.64777",,,,,
"Viqueque Branch Office","Timor-Leste Red Cross Society",,"Field","TL","Cabirooan","Cabirooan",,"Viqueque","Viqueque","Caraubalo","-8.86904","126.36631",,,,,
"Victoria Branch Office","Australian Red Cross","Victoria","Regional","AU",,,,,,,,,,,,,
