"Sex","First Name","Last Name","Type","Email","Mobile Phone","Organisation","Branch","Office Phone","Office","Job Title","Home Address","Home Country","Home L1","Home L2","Home L3","Home Lat","Home Lon"
"Ms.","Maria","Alex","Volunteer","maria.alex@hotmail.com","+(670) 5301-1620","Timor-Leste Red Cross Society",,,,,"Holarua","TL","Manufahi","Same","Holarua",-8.98654,125.65921
"Ms.","Mariano","Rodriques","Volunteer","mariano.rodriques@gmail.com","+(670) 6967-4214","Timor-Leste Red Cross Society",,,,,"Molop","TL","Bobonaro","Bobonaro","Molop",-9.10457,125.34015
"Mr.","Apolonius","da Cunha","Volunteer","apolonius.dacunha@yahoo.com","+(670) 5723-9817","Timor-Leste Red Cross Society",,,,,"Natura","TL","Lautém","Lospalos","Fuiloro",-8.52639,126.99583
"Mr.","Aleixo","Mondego","Volunteer","aleixo.mondego@hotmail.com","+(670) 5295-4445","Timor-Leste Red Cross Society",,,,,"Larigua","TL","Baucau","Laga","Tequino Mata",-8.50999,126.58112
"Mr.","Erculano","Paulo","Volunteer","erculano.paulo@gmail.com","+(670) 7894-3693","Timor-Leste Red Cross Society",,,,,"Lukowai","TL","Ermera","Atsabe","Atadame/Malabe",-8.92639,125.3826
"Ms.","Vanessa","Rafael","Volunteer","vanessa.rafael@yahoo.com","+(670) 7098-9677","Timor-Leste Red Cross Society",,,,,"Matanova","TL","Ermera","Hatolia","Fatubessi",-8.73846,125.32105
"Mr.","Eduarda","Gomes","Volunteer","eduarda.gomes@hotmail.com","+(670) 3065-6071","Timor-Leste Red Cross Society",,,,,"Uatumissa","TL","Baucau","Venilale","Uaiolo",-8.66471,126.42423
"Ms.","Jessica","da Vidigal","Volunteer","jessica.davidigal@gmail.com","+(670) 9875-7147","Timor-Leste Red Cross Society",,,,,"Masilihu","TL","Dili","Atauro","Maquili",-8.29041,125.58532
"Mr.","Manuel","Jose da C.","Volunteer","manuel.josedac@yahoo.com","+(670) 5563-5348","Timor-Leste Red Cross Society",,,,,"Fatukakae","TL","Bobonaro","Balibo","Balibo Vila",-8.96062,125.02772
"Mr.","Marito","Martins","Volunteer","marito.martins@hotmail.com","+(670) 2959-3602","Timor-Leste Red Cross Society",,,,,"Condar","TL","Manatuto","Laclo","Umacaduac",-8.53194,125.96111
"Mr.","Martinho","dos Santos","Volunteer","martinho.dossantos@gmail.com","+(670) 5621-8454","Timor-Leste Red Cross Society",,,,,"Tudoula","TL","Baucau","Baucau","Wailili",-8.54348,126.47209
"Mr.","Leonito","Alves","Volunteer","leonito.alves@yahoo.com","+(670) 6988-1374","Timor-Leste Red Cross Society",,,,,"Setiara","TL","Lautém","Lospalos","Fuiloro",-8.4854,126.97956
"Mr.","Antonio","Saboga","Volunteer","antonio.saboga@hotmail.com","+(670) 8536-6002","Timor-Leste Red Cross Society",,,,,"Kulau","TL","Dili","Cristo Rei","Becora",-8.57235,125.60504
"Mr.","Afonso","Batuca","Volunteer","afonso.batuca@gmail.com","+(670) 5242-4750","Timor-Leste Red Cross Society",,,,,"Lesuaben","TL","Bobonaro","Cailaco","Meligo",-8.92566,125.25696
"Ms.","Liliana","Noel Sila","Volunteer","liliana.noelsila@yahoo.com","+(670) 5106-3215","Timor-Leste Red Cross Society",,,,,"Samalai","TL","Manatuto","Laleia","Cairui",-8.57651,126.1601
"Ms.","Margarida","Ximenes","Volunteer","margarida.ximenes@hotmail.com","+(670) 4500-9191","Timor-Leste Red Cross Society",,,,,"Vila","TL","Dili","Atauro","Atauro Vila/Maumeta",-8.26368,125.60152
"Mr.","Agusto","Quefi","Volunteer","agusto.quefi@gmail.com","+(670) 4589-6352","Timor-Leste Red Cross Society",,,,,"Hatoposi","TL","Ermera","Ermera","Ponilala",-8.72294,125.38564
"Mr.","Januario","Mali Mau","Volunteer","januario.malimau@yahoo.com","+(670) 2070-6739","Timor-Leste Red Cross Society",,,,,"Priramatan","TL","Dili","Metinaro","Duyung (Sereia)",-8.52973,125.75058
"Mr.","Marcus","Zolo","Volunteer","marcus.zolo@hotmail.com","+(670) 5710-8330","Timor-Leste Red Cross Society",,,,,"Uatoue","TL","Baucau","Baucau","Wailili",-8.56806,126.47639
"Mr.","Abel","Gusmão","Volunteer","abel.gusmao@gmail.com","+(670) 9010-3403","Timor-Leste Red Cross Society",,,,,"Naulale","TL","Baucau","Vemase","Uatu-Lari",-8.57411,126.33477
"Ms.","Diana","de Araujo","Volunteer","diana.dearaujo@yahoo.com","+(670) 6412-1943","Timor-Leste Red Cross Society",,,,,"Alaua","TL","Baucau","Baguia","Alaua Leten",-8.62425,126.67677
"Mr.","Goku","Aparicio","Volunteer","goku.aparicio@hotmail.com","+(670) 3397-2416","Timor-Leste Red Cross Society",,,,,"Limanaro","TL","Bobonaro","Atabae","Rairobo",-8.7935,125.1452
"Mr.","Alegria","Botelheiro","Volunteer","alegria.botelheiro@gmail.com","+(670) 2301-3616","Timor-Leste Red Cross Society",,,,,"Goulau","TL","Ainaro","Hatu-Udo","Leolima",-9.11476,125.58599
"Ms.","Manuela","Belo","Volunteer","manuela.belo@yahoo.com","+(670) 8276-5493","Timor-Leste Red Cross Society",,,,,"Lautekas","TL","Liquiçá","Maubara","Gugleur",-8.66314,125.15637
"Mr.","Dinis","Goveia Leite","Volunteer","dinis.goveialeite@hotmail.com","+(670) 9102-2754","Timor-Leste Red Cross Society",,,,,"Faut","TL","Oecusse","Oesilo","Bobometo",-9.30671,124.34798
"Mr.","Guido","Idalina","Volunteer","guido.idalina@gmail.com","+(670) 6089-8017","Timor-Leste Red Cross Society",,,,,"Akadirularan","TL","Ainaro","Hatu-Udo","Foho-ai-Lico",-9.14431,125.64102
"Mr.","Miguel","Nunes","Volunteer","miguel.nunes@yahoo.com","+(670) 4583-9576","Timor-Leste Red Cross Society",,,,,"Leubasa","TL","Ermera","Letefoho","Lauana",-8.89275,125.42469
"Mr.","Carlito","Cromos","Volunteer","carlito.cromos@hotmail.com","+(670) 7704-6453","Timor-Leste Red Cross Society",,,,,"Holitol","TL","Covalima","Zumalai","Raimea",-9.18797,125.49722
"Mr.","Joao","Domingas","Volunteer","joao.domingas@gmail.com","+(670) 8964-5491","Timor-Leste Red Cross Society",,,,,"Waidua","TL","Baucau","Baucau","Samalari",-8.52827,126.4811
"Mr.","Paulo","Cune","Volunteer","paulo.cune@yahoo.com","+(670) 1139-5256","Timor-Leste Red Cross Society",,,,,"Kerolisa","TL","Dili","Vera Cruz","Dare",-8.60323,125.58052
"Mr.","Josefa","Diamentino","Volunteer","josefa.diamentino@hotmail.com","+(670) 4272-3369","Timor-Leste Red Cross Society",,,,,"Orbeto","TL","Ermera","Atsabe","Leimea Leten",-8.88995,125.37951
"Mr.","Lauriano","Martins","Volunteer","lauriano.martins@gmail.com","+(670) 9713-7408","Timor-Leste Red Cross Society",,,,,"Maulore","TL","Ainaro","Ainaro","Ainaro",-8.99508,125.49941
"Ms.","Joana","Gouveia Leite","Volunteer","joana.gouveialeite@yahoo.com","+(670) 4904-5285","Timor-Leste Red Cross Society",,,,,"Auraba","TL","Baucau","Laga","Atelari",-8.55694,126.69167
"Mr.","Alcino","Salvador","Volunteer","alcino.salvador@hotmail.com","+(670) 2024-5330","Timor-Leste Red Cross Society",,,,,"Ossufaso","TL","Lautém","Luro","Luro",-8.54715,126.83158
"Mr.","Nuno","Rosmaninho","Volunteer","nuno.rosmaninho@gmail.com","+(670) 5023-4418","Timor-Leste Red Cross Society",,,,,"Charano","TL","Lautém","Lospalos","Cacavem",-8.59469,126.88854
"Mr.","Paul","dos Santos Barros","Volunteer","paul.dossantosbarros@yahoo.com","+(670) 4665-9041","Timor-Leste Red Cross Society",,,,,"Kakai","TL","Manufahi","Fatuberliu","Fahinehan",-8.99722,125.72917
"Ms.","Alexandra","Direitinho","Volunteer","alexandra.direitinho@hotmail.com","+(670) 4969-1567","Timor-Leste Red Cross Society",,,,,"Goubin","TL","Bobonaro","Balibo","Leolima",-8.86916,125.07361
"Ms.","Sirilia","Vicente","Volunteer","sirilia.vicente@gmail.com","+(670) 3876-6524","Timor-Leste Red Cross Society",,,,,"Futatas","TL","Bobonaro","Balibo","Cowa",-9.02258,124.99537
"Mr.","Nilton","Salsinha Barreto","Volunteer","nilton.salsinhabarreto@yahoo.com","+(670) 3784-2031","Timor-Leste Red Cross Society",,,,,"Poelete","TL","Bobonaro","Cailaco","Atudara",-8.86876,125.23294
"Ms.","Joaquim","Marques","Volunteer","joaquim.marques@hotmail.com","+(670) 8729-1842","Timor-Leste Red Cross Society",,,,,"Datina","TL","Manufahi","Same","Holarua",-8.93606,125.63105
"Mr.","Felix","Soares","Volunteer","felix.soares@gmail.com","+(670) 2339-9141","Timor-Leste Red Cross Society",,,,,"Erilo","TL","Liquiçá","Maubara","Gugleur",-8.65208,125.17105
"Mr.","Severina","Xavier","Volunteer","severina.xavier@yahoo.com","+(670) 8495-3306","Timor-Leste Red Cross Society",,,,,"Madaraira","TL","Lautém","Iliomar","Iliomar II",-8.72887,126.8225
"Mr.","Alvaro","Matos","Volunteer","alvaro.matos@hotmail.com","+(670) 8521-5097","Timor-Leste Red Cross Society",,,,,"Kampungbaru","TL","Liquiçá","Bazartete","Ulmera",-8.57256,125.44723
"Mr.","Eugenio","Hildeberto","Volunteer","eugenio.hildeberto@gmail.com","+(670) 8149-9369","Timor-Leste Red Cross Society",,,,,"Larigua","TL","Baucau","Laga","Tequino Mata",-8.50999,126.58112
"Mr.","Marcos","Fernandes Baptista","Volunteer","marcos.fernandesbaptista@yahoo.com","+(670) 8722-4550","Timor-Leste Red Cross Society",,,,,"Enelaran","TL","Bobonaro","Atabae","Aodabaleten",-8.82812,125.06601
"Mr.","Basilio","Guterres","Volunteer","basilio.guterres@hotmail.com","+(670) 4590-3431","Timor-Leste Red Cross Society",,,,,"Semoro","TL","Oecusse","Pante Macasar","Costa",-9.22087,124.33371
"Ms.","Rosa","Tilman","Volunteer","rosa.tilman@gmail.com","+(670) 7116-4629","Timor-Leste Red Cross Society",,,,,"Larameta","TL","Baucau","Venilale","Uataco",-8.68045,126.43111
"Mr.","Estanislao","Fatima Rebelo","Volunteer","estanislao.fatimarebelo@yahoo.com","+(670) 7629-6046","Timor-Leste Red Cross Society",,,,,"Laikara","TL","Lautém","Lautém","Maina II",-8.44302,126.87056
"Ms.","Florinda","Peneda","Volunteer","florinda.peneda@hotmail.com","+(670) 8312-2158","Timor-Leste Red Cross Society",,,,,"Ililapa","TL","Lautém","Lospalos","Fuiloro",-8.57093,126.98677
"Ms.","Juliana","Barreto","Volunteer","juliana.barreto@gmail.com","+(670) 4631-3624","Timor-Leste Red Cross Society",,,,,"Atus","TL","Bobonaro","Lolotoe","Gildapil",-9.0978,125.191
"Ms.","Rita","Saboga","Volunteer","rita.saboga@yahoo.com","+(670) 6854-6351","Timor-Leste Red Cross Society",,,,,"Chauluturo","TL","Lautém","Lospalos","Fuiloro",-8.45161,127.00807
"Mr.","Juvenal","Lafu","Volunteer","juvenal.lafu@hotmail.com","+(670) 5859-8847","Timor-Leste Red Cross Society",,,,,"Nijamtasa","TL","Oecusse","Pante Macasar","Lalisuc",-9.2416,124.34708
"Mr.","Jaime","Licinia","Volunteer","jaime.licinia@gmail.com","+(670) 3582-5387","Timor-Leste Red Cross Society",,,,,"Kinat","TL","Oecusse","Pante Macasar","Costa",-9.27657,124.41551
"Mr.","Cesar","Antonio Belo","Volunteer","cesar.antoniobelo@yahoo.com","+(670) 7374-2817","Timor-Leste Red Cross Society",,,,,"Namanei","TL","Baucau","Quelicai","Namanei",-8.52216,126.62974
"Mr.","Filomeno","Vidigal dos Santos","Volunteer","filomeno.vidigaldossantos@hotmail.com","+(670) 5333-5673","Timor-Leste Red Cross Society",,,,,"Uaiheda","TL","Viqueque","Ossu","Loi-Huno",-8.78452,126.3779
"Mr.","George","Clara","Volunteer","george.clara@gmail.com","+(670) 4399-6977","Timor-Leste Red Cross Society",,,,,"Masau Bawah","TL","Dili","Cristo Rei","Becora",-8.55689,125.59728
"Mr.","Eli","Pedro Pinto","Volunteer","eli.pedropinto@yahoo.com","+(670) 3923-3859","Timor-Leste Red Cross Society",,,,,"Radeuman","TL","Viqueque","Lacluta","Dilor",-8.84151,126.20933
"Mr.","Sebastiao","da Costa Belo","Volunteer","sebastiao.dacostabelo@hotmail.com","+(670) 6401-7520","Timor-Leste Red Cross Society",,,,,"Uarinana","TL","Baucau","Laga","Tequino Mata",-8.48616,126.59804
"Mr.","Paulino","de Deus Gomes","Volunteer","paulino.dedeusgomes@gmail.com","+(670) 6036-9670","Timor-Leste Red Cross Society",,,,,"Caimalaeho","TL","Baucau","Venilale","Baha Mori",-8.6125,126.42083
"Mr.","Guilherme","Helena","Volunteer","guilherme.helena@yahoo.com","+(670) 6587-4088","Timor-Leste Red Cross Society",,,,,"Lailima","TL","Ainaro","Ainaro","Cassa",-9.13619,125.54041
"Mr.","Heitor","Nunes","Volunteer","heitor.nunes@hotmail.com","+(670) 8697-8134","Timor-Leste Red Cross Society",,,,,"Aileukota","TL","Aileu","Aileu Vila","Seloi Malere",-8.7231,125.56678
"Mr.","Sandra","Cardoso","Volunteer","sandra.cardoso@gmail.com","+(670) 9299-9153","Timor-Leste Red Cross Society",,,,,"Fatukoan","TL","Covalima","Suai","Debos",-9.34261,125.2027
"Mr.","Apolinario","Pereira","Volunteer","apolinario.pereira@yahoo.com","+(670) 3540-5611","Timor-Leste Red Cross Society",,,,,"Terubala","TL","Baucau","Laga","Saelari",-8.49078,126.69527
"Mr.","Kevin","Ojeda","Volunteer","kevin.ojeda@hotmail.com","+(670) 9507-1212","Timor-Leste Red Cross Society",,,,,"Biacau","TL","Bobonaro","Atabae","Aidabaleten",-8.83384,125.05694
"Mr.","Emidia","da Costa Lopes","Volunteer","emidia.dacostalopes@gmail.com","+(670) 3030-4106","Timor-Leste Red Cross Society",,,,,"Lasula","TL","Baucau","Laga","Sagadati",-8.51944,126.69167
"Mr.","Ruben","de Oliveira","Volunteer","ruben.deoliveira@yahoo.com","+(670) 5587-8854","Timor-Leste Red Cross Society",,,,,"Lasuleten","TL","Bobonaro","Balibo","Balibo Vila",-8.95139,125.07222
"Mr.","Fernanda","Sevinate","Volunteer","fernanda.sevinate@hotmail.com","+(670) 3569-5033","Timor-Leste Red Cross Society",,,,,"Maroman","TL","Viqueque","Viqueque","Uma Quic",-8.88099,126.36782
"Mr.","Moises","Roleto","Volunteer","moises.roleto@gmail.com","+(670) 8633-4868","Timor-Leste Red Cross Society",,,,,"Bualale","TL","Viqueque","Uatucarbau","Loi Ulu",-8.68001,126.69952
"Mr.","Luis","Jose","Volunteer","luis.jose@yahoo.com","+(670) 4147-9331","Timor-Leste Red Cross Society",,,,,"Anon","TL","Bobonaro","Lolotoe","Lupal",-9.17928,125.34103
"Ms.","Mónica","Freitas","Volunteer","monica.freitas@hotmail.com","+(670) 7393-7764","Timor-Leste Red Cross Society",,,,,"Bualale","TL","Baucau","Quelicai","Bualale",-8.64342,126.54283
"Mr.","Cornelio","de Fatima","Volunteer","cornelio.defatima@gmail.com","+(670) 4344-6519","Timor-Leste Red Cross Society",,,,,"Hautbititalau","TL","Aileu","Liquidoe","Namoleso",-8.72248,125.65755
"Mr.","Catarina","Chilro","Volunteer","catarina.chilro@yahoo.com","+(670) 1586-9959","Timor-Leste Red Cross Society",,,,,"Folete","TL","Bobonaro","Cailaco","Raiheu",-8.96896,125.30509
"Mr.","Celestino","Caldeira","Volunteer","celestino.caldeira@hotmail.com","+(670) 2288-5217","Timor-Leste Red Cross Society",,,,,"Analulo","TL","Baucau","Baucau","Bahu",-8.46185,126.44774
"Ms.","Meliana","Uva","Volunteer","meliana.uva@gmail.com","+(670) 1762-9539","Timor-Leste Red Cross Society",,,,,"Fiuren","TL","Bobonaro","Balibo","Balibo Vila",-8.95426,125.07879
"Mr.","Bonifacio","Boavida","Volunteer","bonifacio.boavida@yahoo.com","+(670) 6826-8382","Timor-Leste Red Cross Society",,,,,"Kaisera","TL","Ainaro","Hatu-Udo","Foho-ai-Lico",-9.09678,125.68567
"Ms.","Sofia","Godinho","Volunteer","sofia.godinho@hotmail.com","+(670) 2184-2374","Timor-Leste Red Cross Society",,,,,"Lebui","TL","Liquiçá","Liquiçá","Darulete",-8.65922,125.35605
"Mr.","Julio","Adevinha","Volunteer","julio.adevinha@gmail.com","+(670) 1844-3774","Timor-Leste Red Cross Society",,,,,"Paslete","TL","Bobonaro","Cailaco","Atudara",-8.86579,125.22788
"Ms.","Mafalda","Cabecinhas","Volunteer","mafalda.cabecinhas@yahoo.com","+(670) 6926-2187","Timor-Leste Red Cross Society",,,,,"Genulete","TL","Ermera","Atsabe","Atadame/Malabe",-8.93468,125.393
"Mr.","Herculano","Elo","Volunteer","herculano.elo@hotmail.com","+(670) 3210-4957","Timor-Leste Red Cross Society",,,,,"Malushum","TL","Manatuto","Soibada","Leo Hat",-8.86528,125.94535
"Ms.","Joaninha","Pinto Soares","Volunteer","joaninha.pintosoares@gmail.com","+(670) 2875-2836","Timor-Leste Red Cross Society",,,,,"Leotelo","TL","Ainaro","Hatu-Builico","Mau-Chiga",-8.96614,125.53884
"Mr.","Marcos","Ximenes","Volunteer","marcos.ximenes@yahoo.com","+(670) 4197-8738","Timor-Leste Red Cross Society",,,,,"Kuef","TL","Oecusse","Passabe","Abani",-9.47083,124.32361
"Mr.","Edi","Baros","Volunteer","edi.baros@hotmail.com","+(670) 5965-2576","Timor-Leste Red Cross Society",,,,,"Beloi","TL","Dili","Atauro","Beloi",-8.22062,125.60435
"Mr.","Custodio","Palat","Volunteer","custodio.palat@gmail.com","+(670) 7996-3845","Timor-Leste Red Cross Society",,,,,"Kotafoun","TL","Covalima","Tilomar","Lalawa",-9.34349,125.11847
"Ms.","Carlota","Hugo","Volunteer","carlota.hugo@yahoo.com","+(670) 9989-7530","Timor-Leste Red Cross Society",,,,,"Caraubalo","TL","Viqueque","Viqueque","Caraubalo",-8.85898,126.36353
"Mr.","Adelino","Magno Freitas","Volunteer","adelino.magnofreitas@hotmail.com","+(670) 1270-2394","Timor-Leste Red Cross Society",,,,,"Lasula","TL","Baucau","Laga","Sagadati",-8.51944,126.69167
"Mr.","Joel","Duarte","Volunteer","joel.duarte@gmail.com","+(670) 1217-7438","Timor-Leste Red Cross Society",,,,,"Fatukledun","TL","Covalima","Fohorem","Dato Rua",-9.26499,125.05767
"Mr.","Agostinho","Rente","Volunteer","agostinho.rente@yahoo.com","+(670) 9459-5844","Timor-Leste Red Cross Society",,,,,"Rihiu","TL","Liquiçá","Bazartete","Tibar",-8.62042,125.47551
"Mr.","Lucas","Bosco  Soares","Volunteer","lucas.boscosoares@hotmail.com","+(670) 3321-6761","Timor-Leste Red Cross Society",,,,,"Caibolale","TL","Baucau","Baucau","Trilolo",-8.44518,126.35831
"Ms.","Daniela","Moniz","Volunteer","daniela.moniz@gmail.com","+(670) 2358-9467","Timor-Leste Red Cross Society",,,,,"Dorema","TL","Ermera","Railaco","Railaco Leten",-8.68942,125.50185
"Ms.","Xanana","de Jesus Alves","Volunteer","xanana.dejesusalves@yahoo.com","+(670) 5704-7510","Timor-Leste Red Cross Society",,,,,"Leododok","TL","Manatuto","Laclo","Lacumesac",-8.55301,125.90492
"Mr.","Dominikus","Pascoela","Volunteer","dominikus.pascoela@hotmail.com","+(670) 4300-8178","Timor-Leste Red Cross Society",,,,,"Raimaso","TL","Aileu","Aileu Vila","Suco Liurai",-8.77438,125.51814
"Ms.","Emilio","M. Pereira","Volunteer","emilio.m.pereira@gmail.com","+(670) 2553-4164","Timor-Leste Red Cross Society",,,,,"Nunafa","TL","Oecusse","Nitibe","Banafi",-9.39583,124.30833
"Mr.","Venancio","Liub","Volunteer","venancio.liub@yahoo.com","+(670) 7892-6258","Timor-Leste Red Cross Society",,,,,"Radeuman","TL","Viqueque","Lacluta","Dilor",-8.84151,126.20933
"Mr.","Duarte","da Silva","Volunteer","duarte.dasilva@hotmail.com","+(670) 9225-1788","Timor-Leste Red Cross Society",,,,,"Lospalos","TL","Lautém","Lospalos","Fuiloro",-8.51994,126.99433
"Mr.","Lino","Pala","Volunteer","lino.pala@gmail.com","+(670) 8373-4068","Timor-Leste Red Cross Society",,,,,"Alecou Lama","TL","Bobonaro","Maliana","Ritabou",-8.91762,125.15326
"Mr.","José","Rilo","Volunteer","jose.rilo@yahoo.com","+(670) 8543-9837","Timor-Leste Red Cross Society",,,,,"Loegolo","TL","Covalima","Zumalai","Fatuleto",-9.11775,125.41871
"Mr.","Cipriano","Rogerio","Volunteer","cipriano.rogerio@hotmail.com","+(670) 4604-6634","Timor-Leste Red Cross Society",,,,,"Beheda","TL","Manatuto","Laclo","Umacaduac",-8.49429,125.95224
"Mr.","Quito","Bercamns","Volunteer","quito.bercamns@gmail.com","+(670) 4436-9695","Timor-Leste Red Cross Society",,,,,"Baura","TL","Liquiçá","Bazartete","Leorema",-8.65378,125.37199
"Mr.","Hermengildo","da Costa Mariz","Volunteer","hermengildo.dacostamariz@yahoo.com","+(670) 1003-8299","Timor-Leste Red Cross Society",,,,,"Auraba","TL","Baucau","Laga","Sagadati",-8.51846,126.70568
"Mr.","Johanes","Marques","Volunteer","johanes.marques@hotmail.com","+(670) 1891-6749","Timor-Leste Red Cross Society",,,,,"Atelari","TL","Baucau","Laga","Atelari",-8.54694,126.70406
"Mr.","Clementino","de Almeida","Volunteer","clementino.dealmeida@gmail.com","+(670) 4820-1520","Timor-Leste Red Cross Society",,,,,"Leborema","TL","Ermera","Ermera","Raimerhei",-8.82562,125.39371
"Mr.","Noti","F. Branco","Volunteer","noti.f.branco@yahoo.com","+(670) 8693-6530","Timor-Leste Red Cross Society",,,,,"Uaibobo","TL","Baucau","Venilale","Bado Ho'o",-8.6329,126.44116
"Mr.","Edilirio","Xareal","Volunteer","edilirio.xareal@hotmail.com","+(670) 3624-1277","Timor-Leste Red Cross Society",,,,,"Nuahake","TL","Oecusse","Passabe","Abani",-9.46897,124.32117
"Mr.","Angelino","Jaelani","Volunteer","angelino.jaelani@gmail.com","+(670) 1447-2722","Timor-Leste Red Cross Society",,,,,"Riatu","TL","Ermera","Ermera","Estado",-8.79025,125.41704
"Mr.","Lourenco","da Costa","Volunteer","lourenco.dacosta@yahoo.com","+(670) 9747-7895","Timor-Leste Red Cross Society",,,,,"Aileukota","TL","Aileu","Aileu Vila","Seloi Malere",-8.7231,125.56678
"Mr.","Mario","Brites","Volunteer","mario.brites@hotmail.com","+(670) 9218-1777","Timor-Leste Red Cross Society",,,,,"Hohopu","TL","Ermera","Hatolia","Hatolia",-8.81372,125.32252
"Mr.","Donato","Solposto","Volunteer","donato.solposto@gmail.com","+(670) 1831-6095","Timor-Leste Red Cross Society",,,,,"Sibarceon","TL","Aileu","Remexio","Faturasa",-8.6812,125.80573
"Ms.","Joana","Pinto","Volunteer","joana.pinto@yahoo.com","+(670) 7036-4331","Timor-Leste Red Cross Society",,,,,"Laherubi","TL","Baucau","Baucau","Buibau",-8.51242,126.47404
"Mr.","Francisco","de Jesus","Volunteer","francisco.dejesus@hotmail.com","+(670) 2033-3333","Timor-Leste Red Cross Society",,,,,"Riatu","TL","Manufahi","Same","Daisua",-9.09201,125.69256
"Mr.","Sergio","Goncalves","Volunteer","sergio.goncalves@gmail.com","+(670) 6572-3539","Timor-Leste Red Cross Society",,,,,"Bemori Sentral","TL","Dili","Nain Feto","Bemori",-8.55889,125.58528
"Ms.","Ercia","Barros dos Reis","Volunteer","ercia.barrosdosreis@yahoo.com","+(670) 6777-2216","Timor-Leste Red Cross Society",,,,,"One-Bu'u","TL","Baucau","Laga","Sagadati",-8.52348,126.69228
"Ms.","Telma","da Costa Oliveira","Volunteer","telma.dacostaoliveira@hotmail.com","+(670) 8292-7790","Timor-Leste Red Cross Society",,,,,"Maununo","TL","Ainaro","Ainaro","Cassa",-9.14067,125.54087
"Mr.","Durcelina","Amaral","Volunteer","durcelina.amaral@gmail.com","+(670) 1417-5021","Timor-Leste Red Cross Society",,,,,"Riamori","TL","Manufahi","Fatuberliu","Fahinehan",-8.92519,125.75584
"Mr.","Tomas","Zacarias","Volunteer","tomas.zacarias@yahoo.com","+(670) 6651-2040","Timor-Leste Red Cross Society",,,,,"Marae","TL","Viqueque","Uatucarbau","Irabin de Cima",-8.69989,126.71176
"Mr.","Vidiana","Albuquequer","Volunteer","vidiana.albuquequer@hotmail.com","+(670) 9270-7393","Timor-Leste Red Cross Society",,,,,"Manulete","TL","Liquiçá","Bazartete","Leorema",-8.68464,125.38961
"Ms.","Abril","Otilia","Volunteer","abril.otilia@gmail.com","+(670) 2154-3346","Timor-Leste Red Cross Society",,,,,"Sibuni","TL","Bobonaro","Bobonaro","Sibuni",-9.08733,125.33104
"Mr.","Augusto","Polainos","Volunteer","augusto.polainos@yahoo.com","+(670) 2359-9055","Timor-Leste Red Cross Society",,,,,"Malileten","TL","Bobonaro","Balibo","Balibo Vila",-8.93873,125.05739
"Ms.","Graciano","Macedo","Volunteer","graciano.macedo@hotmail.com","+(670) 9565-3348","Timor-Leste Red Cross Society",,,,,"Namanei","TL","Baucau","Baguia","Alaua Craic",-8.6375,126.64444
"Mr.","Domingos","Moises","Volunteer","domingos.moises@gmail.com","+(670) 8838-8789","Timor-Leste Red Cross Society",,,,,"Locileu","TL","Lautém","Iliomar","Fuat",-8.60766,126.88245
"Mr.","Abelito","Horta","Volunteer","abelito.horta@yahoo.com","+(670) 2658-3891","Timor-Leste Red Cross Society",,,,,"Maina 2","TL","Lautém","Lautém","Maina II",-8.46396,126.88076
"Mr.","Agapito","Gohan","Volunteer","agapito.gohan@hotmail.com","+(670) 3216-5427","Timor-Leste Red Cross Society",,,,,"Uatolia","TL","Baucau","Venilale","Uailaha",-8.64727,126.37321
"Mr.","Acacio","Ramos","Volunteer","acacio.ramos@gmail.com","+(670) 7973-6868","Timor-Leste Red Cross Society",,,,,"Denehuni","TL","Aileu","Aileu Vila","Lahae",-8.78771,125.56124
"Mr.","Natalino","de Carvalho","Volunteer","natalino.decarvalho@yahoo.com","+(670) 3617-6416","Timor-Leste Red Cross Society",,,,,"Hatulete","TL","Ainaro","Maubisse","Maulau",-8.78706,125.6797
"Ms.","Isabel","Fahik Batak","Volunteer","isabel.fahikbatak@hotmail.com","+(670) 9250-1014","Timor-Leste Red Cross Society",,,,,"Oges","TL","Covalima","Maucatar","Ogues",-9.26491,125.21452
"Ms.","Beatriz","Maia","Volunteer","beatriz.maia@gmail.com","+(670) 5525-4159","Timor-Leste Red Cross Society",,,,,"Lisalara","TL","Liquiçá","Maubara","Gugleur",-8.66591,125.18613
"Mr.","Marcelino","Moio","Volunteer","marcelino.moio@yahoo.com","+(670) 9953-2237","Timor-Leste Red Cross Society",,,,,"Butufalo","TL","Baucau","Laga","Soba",-8.48663,126.61849
"Mr.","Marcelo","Sereno","Volunteer","marcelo.sereno@hotmail.com","+(670) 3106-1152","Timor-Leste Red Cross Society",,,,,"Tetumori","TL","Viqueque","Uatucarbau","Afaloicai",-8.66687,126.65799
"Mr.","Justiano","Gorette","Volunteer","justiano.gorette@gmail.com","+(670) 6912-8026","Timor-Leste Red Cross Society",,,,,"Hatali","TL","Ermera","Ermera","Humboe",-8.7689,125.43549
"Ms.","Soraia","Alex","Volunteer","soraia.alex@yahoo.com","+(670) 4325-9994","Timor-Leste Red Cross Society",,,,,"Uatumissa","TL","Baucau","Venilale","Uaiolo",-8.66471,126.42423
"Mr.","Lucio","Rodriques","Volunteer","lucio.rodriques@hotmail.com","+(670) 5606-5577","Timor-Leste Red Cross Society",,,,,"Metinaro","TL","Dili","Metinaro","Sabuli",-8.52993,125.74083
"Ms.","Clàudia","da Cunha","Volunteer","claudia.dacunha@gmail.com","+(670) 1483-7999","Timor-Leste Red Cross Society",,,,,"Lacolio","TL","Baucau","Quelicai","Baguia",-8.58616,126.54613
"Ms.","Adriana","Mondego","Volunteer","adriana.mondego@yahoo.com","+(670) 1875-1835","Timor-Leste Red Cross Society",,,,,"Saharaitaurema","TL","Ermera","Letefoho","Eraulo",-8.8267,125.49028
"Ms.","Elly","Paulo","Volunteer","elly.paulo@hotmail.com","+(670) 1516-5315","Timor-Leste Red Cross Society",,,,,"Uasufa","TL","Baucau","Baguia","Alaua Leten",-8.62852,126.65959
"Mr.","Orlando","Rafael","Volunteer","orlando.rafael@gmail.com","+(670) 2224-7819","Timor-Leste Red Cross Society",,,,,"Fatumering","TL","Aileu","Liquidoe","Manucasa",-8.70773,125.63828
"Mr.","Yakobus","Gomes","Volunteer","yakobus.gomes@yahoo.com","+(670) 5173-2562","Timor-Leste Red Cross Society",,,,,"Nobularan","TL","Manufahi","Alas","Dotic",-9.05559,125.87713
"Mr.","Abrao","da Vidigal","Volunteer","abrao.davidigal@hotmail.com","+(670) 1179-8619","Timor-Leste Red Cross Society",,,,,"Uaimare","TL","Viqueque","Uatucarbau","Afaloicai",-8.66587,126.66882
"Ms.","Mariana","Jose da C.","Volunteer","mariana.josedac@gmail.com","+(670) 4881-4768","Timor-Leste Red Cross Society",,,,,"Lequliwatu","TL","Baucau","Baucau","Bucoli",-8.48648,126.34456
"Mr.","Andreia","Martins","Volunteer","andreia.martins@yahoo.com","+(670) 1007-2383","Timor-Leste Red Cross Society",,,,,"Baguia","TL","Baucau","Quelicai","Baguia",-8.5889,126.54718
"Ms.","Maria","dos Santos","Volunteer","maria.dossantos@hotmail.com","+(670) 8033-7398","Timor-Leste Red Cross Society",,,,,"Kaikasa","TL","Aileu","Aileu Vila","Fatubosa",-8.83842,125.53007
"Ms.","Mariano","Alves","Volunteer","mariano.alves@gmail.com","+(670) 3451-8494","Timor-Leste Red Cross Society",,,,,"Kiubose","TL","Oecusse","Pante Macasar","Naimeco",-9.28548,124.37647
"Mr.","Apolonius","Saboga","Volunteer","apolonius.saboga@yahoo.com","+(670) 9570-4081","Timor-Leste Red Cross Society",,,,,"Bilekun","TL","Bobonaro","Balibo","Balico Vila",-8.95736,125.07143
"Mr.","Aleixo","Batuca","Volunteer","aleixo.batuca@hotmail.com","+(670) 8419-2549","Timor-Leste Red Cross Society",,,,,"Hedamea","TL","Ermera","Hatolia","Hatolia",-8.82409,125.32266
"Mr.","Erculano","Noel Sila","Volunteer","erculano.noelsila@gmail.com","+(670) 8364-1485","Timor-Leste Red Cross Society",,,,,"Nelgen","TL","Bobonaro","Bobonaro","Oe-Leu",-9.03888,125.28139
"Ms.","Vanessa","Ximenes","Volunteer","vanessa.ximenes@yahoo.com","+(670) 4947-7420","Timor-Leste Red Cross Society",,,,,"Uasufa","TL","Baucau","Baguia","Alaua Leten",-8.62852,126.65959
"Mr.","Eduarda","Quefi","Volunteer","eduarda.quefi@hotmail.com","+(670) 1699-1287","Timor-Leste Red Cross Society",,,,,"Lugu Teho","TL","Bobonaro","Atabae","Atabae",-8.81905,125.20636
"Ms.","Jessica","Mali Mau","Volunteer","jessica.malimau@gmail.com","+(670) 5741-3883","Timor-Leste Red Cross Society",,,,,"Leva","TL","Liquiçá","Liquiçá","Leoteala",-8.67778,125.29028
"Mr.","Manuel","Zolo","Volunteer","manuel.zolo@yahoo.com","+(670) 9417-2261","Timor-Leste Red Cross Society",,,,,"Samadae","TL","Baucau","Quelicai","Macalaco",-8.57563,126.5528
"Mr.","Marito","Gusmão","Volunteer","marito.gusmao@hotmail.com","+(670) 6724-6695","Timor-Leste Red Cross Society",,,,,"Uaitame","TL","Baucau","Quelicai","Waitame",-8.58227,126.5735
"Mr.","Martinho","de Araujo","Volunteer","martinho.dearaujo@gmail.com","+(670) 2079-3406","Timor-Leste Red Cross Society",,,,,"Macalaco","TL","Baucau","Quelicai","Macalaco",-8.56995,126.51847
"Mr.","Leonito","Aparicio","Volunteer","leonito.aparicio@yahoo.com","+(670) 4762-9415","Timor-Leste Red Cross Society",,,,,"Carbulai","TL","Manufahi","Same","Holarua",-8.95417,125.65139
"Mr.","Antonio","Botelheiro","Volunteer","antonio.botelheiro@hotmail.com","+(670) 4833-4737","Timor-Leste Red Cross Society",,,,,"Soro Kecil","TL","Lautém","Lospalos","Leuro",-8.53056,126.92625
"Mr.","Afonso","Belo","Volunteer","afonso.belo@gmail.com","+(670) 6355-6973","Timor-Leste Red Cross Society",,,,,"Bauana","TL","Ermera","Hatolia","Manusae",-8.78222,125.35379
"Ms.","Liliana","Goveia Leite","Volunteer","liliana.goveialeite@yahoo.com","+(670) 3315-9963","Timor-Leste Red Cross Society",,,,,"Berluli","TL","Ermera","Ermera","Poetete",-8.73453,125.41031
"Ms.","Margarida","Idalina","Volunteer","margarida.idalina@hotmail.com","+(670) 3808-1152","Timor-Leste Red Cross Society",,,,,"Hatuqesi Lete","TL","Liquiçá","Liquiçá","Hatuquessi",-8.64489,125.32136
"Mr.","Agusto","Nunes","Volunteer","agusto.nunes@gmail.com","+(670) 1533-8758","Timor-Leste Red Cross Society",,,,,"Raimia","TL","Dili","Cristo Rei","Hera",-8.56412,125.64267
"Mr.","Januario","Cromos","Volunteer","januario.cromos@yahoo.com","+(670) 2916-9957","Timor-Leste Red Cross Society",,,,,"Mauloho","TL","Lautém","Lospalos","Raca",-8.43821,126.96944
"Mr.","Marcus","Domingas","Volunteer","marcus.domingas@hotmail.com","+(670) 3580-6196","Timor-Leste Red Cross Society",,,,,"Matapati","TL","Aileu","Laulara","Madabeno",-8.6443,125.57499
"Mr.","Abel","Cune","Volunteer","abel.cune@gmail.com","+(670) 6308-3913","Timor-Leste Red Cross Society",,,,,"Latua","TL","Baucau","Baucau","Buibau",-8.49473,126.46959
"Ms.","Diana","Diamentino","Volunteer","diana.diamentino@yahoo.com","+(670) 7356-1229","Timor-Leste Red Cross Society",,,,,"Uaitoco","TL","Baucau","Venilale","Bado Ho'o",-8.62583,126.44376
"Mr.","Goku","Martins","Volunteer","goku.martins@hotmail.com","+(670) 9864-4453","Timor-Leste Red Cross Society",,,,,"Nunubrihate","TL","Liquiçá","Liquiçá","Hatuquessi",-8.65153,125.32162
"Mr.","Alegria","Gouveia Leite","Volunteer","alegria.gouveialeite@gmail.com","+(670) 5162-6602","Timor-Leste Red Cross Society",,,,,"Lori","TL","Lautém","Lospalos","Lore I",-8.66152,127.02607
"Ms.","Manuela","Salvador","Volunteer","manuela.salvador@yahoo.com","+(670) 3516-6773","Timor-Leste Red Cross Society",,,,,"Kolosuma","TL","Bobonaro","Balibo","Batugade",-8.96398,125.00073
"Mr.","Dinis","Rosmaninho","Volunteer","dinis.rosmaninho@hotmail.com","+(670) 1563-4462","Timor-Leste Red Cross Society",,,,,"Bekosi Atas","TL","Dili","Cristo Rei","Becora",-8.56471,125.60534
"Mr.","Guido","dos Santos Barros","Volunteer","guido.dossantosbarros@gmail.com","+(670) 5735-7614","Timor-Leste Red Cross Society",,,,,"Abuti","TL","Bobonaro","Cailaco","Purugoa",-8.84548,125.23087
"Mr.","Miguel","Direitinho","Volunteer","miguel.direitinho@yahoo.com","+(670) 4510-1973","Timor-Leste Red Cross Society",,,,,"Bispo Medeiros","TL","Dili","Vera Cruz","Macarenhas",-8.56456,125.57769
"Mr.","Carlito","Vicente","Volunteer","carlito.vicente@hotmail.com","+(670) 4375-9876","Timor-Leste Red Cross Society",,,,,"Maulako","TL","Dili","Atauro","Macadade",-8.28056,125.57778
"Mr.","Joao","Salsinha Barreto","Volunteer","joao.salsinhabarreto@gmail.com","+(670) 1947-6376","Timor-Leste Red Cross Society",,,,,"Amis","TL","Bobonaro","Lolotoe","Lupal",-9.1591,125.2798
"Mr.","Paulo","Marques","Volunteer","paulo.marques@yahoo.com","+(670) 6360-2770","Timor-Leste Red Cross Society",,,,,"Borala","TL","Viqueque","Ossu","Ossu de Cima",-8.75214,126.38092
"Mr.","Josefa","Soares","Volunteer","josefa.soares@hotmail.com","+(670) 6851-5159","Timor-Leste Red Cross Society",,,,,"Deunai","TL","Manufahi","Same","Holarua",-8.90719,125.66203
"Mr.","Lauriano","Xavier","Volunteer","lauriano.xavier@gmail.com","+(670) 9284-9497","Timor-Leste Red Cross Society",,,,,"Fanulelo","TL","Manufahi","Turiscai","Liurai",-8.81939,125.74532
"Ms.","Joana","Matos","Volunteer","joana.matos@yahoo.com","+(670) 7588-7769","Timor-Leste Red Cross Society",,,,,"Akrema","TL","Dili","Atauro","Biceli",-8.13432,125.63417
"Mr.","Alcino","Hildeberto","Volunteer","alcino.hildeberto@hotmail.com","+(670) 6023-7721","Timor-Leste Red Cross Society",,,,,"Umarama","TL","Baucau","Baucau","Seical",-8.48445,126.55545
"Mr.","Nuno","Fernandes Baptista","Volunteer","nuno.fernandesbaptista@gmail.com","+(670) 7932-8102","Timor-Leste Red Cross Society",,,,,"Rahameta","TL","Baucau","Baucau","Buibau",-8.51111,126.475
"Mr.","Paul","Guterres","Volunteer","paul.guterres@yahoo.com","+(670) 8341-2579","Timor-Leste Red Cross Society",,,,,"Kuluan","TL","Covalima","Zumalai","Tashilin",-9.22273,125.43554
"Ms.","Alexandra","Tilman","Volunteer","alexandra.tilman@hotmail.com","+(670) 1580-2390","Timor-Leste Red Cross Society",,,,,"Berato","TL","Manatuto","Manatuto","Ma'abat",-8.51417,126.01934
"Ms.","Sirilia","Fatima Rebelo","Volunteer","sirilia.fatimarebelo@gmail.com","+(670) 1235-4294","Timor-Leste Red Cross Society",,,,,"Poeana","TL","Ermera","Ermera","Humboe",-8.75617,125.43812
"Mr.","Nilton","Peneda","Volunteer","nilton.peneda@yahoo.com","+(670) 2642-2462","Timor-Leste Red Cross Society",,,,,"Carabau","TL","Bobonaro","Bobonaro","Carabau",-9.01787,125.38241
"Ms.","Joaquim","Barreto","Volunteer","joaquim.barreto@hotmail.com","+(670) 7909-4438","Timor-Leste Red Cross Society",,,,,"Bazartete","TL","Liquiçá","Bazartete","Fatumasi",-8.62572,125.38338
"Mr.","Felix","Saboga","Volunteer","felix.saboga@gmail.com","+(670) 2839-3789","Timor-Leste Red Cross Society",,,,,"Holak","TL","Bobonaro","Lolotoe","Deudet",-9.14235,125.27442
"Mr.","Severina","Lafu","Volunteer","severina.lafu@yahoo.com","+(670) 5179-4950","Timor-Leste Red Cross Society",,,,,"Bitana","TL","Oecusse","Oesilo","Usi-Tacae",-9.34285,124.32152
"Mr.","Alvaro","Bruno","Volunteer","alvaro.bruno@hotmail.com","+(670) 9986-6637","Timor-Leste Red Cross Society",,,,,"Oelole","TL","Oecusse","Pante Macasar","Naimeco",-9.28254,124.36494
"Mr.","Eugenio","Maria","Volunteer","eugenio.maria@gmail.com","+(670) 3131-6878","Timor-Leste Red Cross Society",,,,,"Holpilat","TL","Covalima","Maucatar","Holpilat",-9.22222,125.2125
"Mr.","Marcos","Dias Gomes","Volunteer","marcos.diasgomes@yahoo.com","+(670) 4447-9447","Timor-Leste Red Cross Society",,,,,"Halaena","TL","Lautém","Luro","Luro",-8.54537,126.83606
"Mr.","Basilio","Baptista","Volunteer","basilio.baptista@hotmail.com","+(670) 1411-8355","Timor-Leste Red Cross Society",,,,,"Lauabe","TL","Ermera","Atsabe","Baboi Craic",-8.91185,125.39842
"Ms.","Rosa","de Deus","Volunteer","rosa.dedeus@gmail.com","+(670) 8727-1195","Timor-Leste Red Cross Society",,,,,"Furaclau","TL","Manufahi","Turiscai","Aitemua",-8.86621,125.71697
"Mr.","Estanislao","Adevinha","Volunteer","estanislao.adevinha@yahoo.com","+(670) 3109-6911","Timor-Leste Red Cross Society",,,,,"Ariana","TL","Baucau","Venilale","Uataco",-8.63583,126.41102
"Ms.","Florinda","Urbana","Volunteer","florinda.urbana@hotmail.com","+(670) 7320-5213","Timor-Leste Red Cross Society",,,,,"Umaanaico","TL","Baucau","Vemase","Ossoala",-8.5901,126.33413
"Ms.","Juliana","Arriaga","Volunteer","juliana.arriaga@gmail.com","+(670) 2530-4632","Timor-Leste Red Cross Society",,,,,"Maliubu","TL","Bobonaro","Bobonaro","Male-Ubu",-8.99364,125.3839
"Ms.","Rita","Hendrigue Pinto","Volunteer","rita.hendriguepinto@yahoo.com","+(670) 6928-4441","Timor-Leste Red Cross Society",,,,,"Bahatata","TL","Baucau","Baguia","Haeconi",-8.63889,126.6375
"Mr.","Juvenal","Polido","Volunteer","juvenal.polido@hotmail.com","+(670) 7922-9107","Timor-Leste Red Cross Society",,,,,"Hatululi","TL","Ainaro","Maubisse","Maubisse",-8.85358,125.58703
"Mr.","Jaime","Pereira","Volunteer","jaime.pereira@gmail.com","+(670) 3839-5793","Timor-Leste Red Cross Society",,,,,"Boi-Le","TL","Baucau","Baucau","Buruma",-8.46168,126.45628
"Mr.","Cesar","Ojeda","Volunteer","cesar.ojeda@yahoo.com","+(670) 1272-6413","Timor-Leste Red Cross Society",,,,,"Raano","TL","Lautém","Lautém","Serelau",-8.43692,126.85422
"Mr.","Filomeno","da Costa Lopes","Volunteer","filomeno.dacostalopes@hotmail.com","+(670) 6917-1617","Timor-Leste Red Cross Society",,,,,"Babulu","TL","Manufahi","Same","Babulu",-9.02318,125.65539
"Mr.","George","de Oliveira","Volunteer","george.deoliveira@gmail.com","+(670) 7934-2535","Timor-Leste Red Cross Society",,,,,"Betupu","TL","Ermera","Hatolia","Coliate-Leotelo",-8.83049,125.36423
"Mr.","Eli","Sevinate","Volunteer","eli.sevinate@yahoo.com","+(670) 3639-6090","Timor-Leste Red Cross Society",,,,,"Hohorai","TL","Manatuto","Laclo","Lacumesac",-8.55763,125.91262
"Mr.","Sebastiao","Roleto","Volunteer","sebastiao.roleto@hotmail.com","+(670) 7629-4670","Timor-Leste Red Cross Society",,,,,"Duyung","TL","Dili","Metinaro","Duyung (Sereia)",-8.52931,125.75351
"Mr.","Paulino","Jose","Volunteer","paulino.jose@gmail.com","+(670) 7454-6749","Timor-Leste Red Cross Society",,,,,"Piron","TL","Bobonaro","Lolotoe","Lontas",-9.1412,125.22724
"Mr.","Guilherme","Freitas","Volunteer","guilherme.freitas@yahoo.com","+(670) 4972-6701","Timor-Leste Red Cross Society",,,,,"Caunua","TL","Manatuto","Barique/Natarbora","Barique",-8.84709,126.06484
"Mr.","Heitor","de Fatima","Volunteer","heitor.defatima@hotmail.com","+(670) 2520-7125","Timor-Leste Red Cross Society",,,,,"Aidac","TL","Viqueque","Viqueque","Bahalarauain",-8.91113,126.28374
"Mr.","Sandra","Chilro","Volunteer","sandra.chilro@gmail.com","+(670) 9904-3200","Timor-Leste Red Cross Society",,,,,"Kelisifu","TL","Liquiçá","Maubara","Vatuboro",-8.65358,125.11878
"Mr.","Apolinario","Caldeira","Volunteer","apolinario.caldeira@yahoo.com","+(670) 4244-3825","Timor-Leste Red Cross Society",,,,,"Soslodade","TL","Dili","Vera Cruz","Colmera",-8.55512,125.57259
"Mr.","Kevin","Uva","Volunteer","kevin.uva@hotmail.com","+(670) 9508-6735","Timor-Leste Red Cross Society",,,,,"Tarmausoru","TL","Ermera","Railaco","Matata",-8.69496,125.397
"Mr.","Emidia","Boavida","Volunteer","emidia.boavida@gmail.com","+(670) 2703-6145","Timor-Leste Red Cross Society",,,,,"Bilahuk","TL","Oecusse","Pante Macasar","Naimeco",-9.28631,124.36134
"Mr.","Ruben","Godinho","Volunteer","ruben.godinho@yahoo.com","+(670) 7002-3364","Timor-Leste Red Cross Society",,,,,"Bahamori","TL","Baucau","Baucau","Gariuai",-8.53986,126.42382
"Mr.","Fernanda","Adevinha","Volunteer","fernanda.adevinha@hotmail.com","+(670) 5422-2421","Timor-Leste Red Cross Society",,,,,"Tomanamo","TL","Manufahi","Same","Letefoho",-8.98804,125.62828
"Mr.","Moises","Cabecinhas","Volunteer","moises.cabecinhas@gmail.com","+(670) 7529-2251","Timor-Leste Red Cross Society",,,,,"Sisicolema","TL","Liquiçá","Liquiçá","Asumano",-8.69831,125.35257
"Mr.","Luis","Elo","Volunteer","luis.elo@yahoo.com","+(670) 2037-4593","Timor-Leste Red Cross Society",,,,,"Oebu","TL","Oecusse","Passabe","Abani",-9.46424,124.31634
"Ms.","Mónica","Pinto Soares","Volunteer","monica.pintosoares@hotmail.com","+(670) 5677-2498","Timor-Leste Red Cross Society",,,,,"Irabere","TL","Viqueque","Uatucarbau","Loi Ulu",-8.69541,126.70417
"Mr.","Cornelio","Ximenes","Volunteer","cornelio.ximenes@gmail.com","+(670) 5369-7921","Timor-Leste Red Cross Society",,,,,"Lahae","TL","Aileu","Aileu Vila","Lahae",-8.79009,125.56058
"Mr.","Catarina","Baros","Volunteer","catarina.baros@yahoo.com","+(670) 2013-8243","Timor-Leste Red Cross Society",,,,,"Muapitine","TL","Lautém","Lospalos","Muapitine",-8.51132,127.12342
"Mr.","Celestino","Palat","Volunteer","celestino.palat@hotmail.com","+(670) 1887-1205","Timor-Leste Red Cross Society",,,,,"Uai-Mata","TL","Baucau","Baguia","Afaloicai",-8.66637,126.61132
"Ms.","Meliana","Hugo","Volunteer","meliana.hugo@gmail.com","+(670) 8638-4739","Timor-Leste Red Cross Society",,,,,"Caimegi Ulu","TL","Liquiçá","Bazartete","Lauhata",-8.59896,125.39572
"Mr.","Bonifacio","Magno Freitas","Volunteer","bonifacio.magnofreitas@yahoo.com","+(670) 2706-5087","Timor-Leste Red Cross Society",,,,,"Ailoklaran","TL","Dili","Dom Aleixo","Bairo Pite",-8.56467,125.55931
"Ms.","Sofia","Duarte","Volunteer","sofia.duarte@hotmail.com","+(670) 9045-7718","Timor-Leste Red Cross Society",,,,,"Mauluto","TL","Liquiçá","Bazartete","Motaulun",-8.5941,125.40021
"Mr.","Julio","Rente","Volunteer","julio.rente@gmail.com","+(670) 5821-1191","Timor-Leste Red Cross Society",,,,,"Parlamento","TL","Lautém","Lautém","Parlamento",-8.36002,126.93333
"Ms.","Mafalda","Bosco  Soares","Volunteer","mafalda.boscosoares@yahoo.com","+(670) 2597-6578","Timor-Leste Red Cross Society",,,,,"Oebola","TL","Bobonaro","Atabae","Atabae",-8.76443,125.19451
"Mr.","Herculano","Moniz","Volunteer","herculano.moniz@hotmail.com","+(670) 2700-4119","Timor-Leste Red Cross Society",,,,,"Iipo","TL","Bobonaro","Lolotoe","Lebos",-9.13562,125.20683
"Ms.","Joaninha","de Jesus Alves","Volunteer","joaninha.dejesusalves@gmail.com","+(670) 2619-1631","Timor-Leste Red Cross Society",,,,,"Saeuataissi","TL","Baucau","Laga","Soba",-8.47171,126.60124
"Mr.","Marcos","Pascoela","Volunteer","marcos.pascoela@yahoo.com","+(670) 5041-2269","Timor-Leste Red Cross Society",,,,,"Kampung Baru","TL","Manatuto","Laleia","Lifau",-8.50423,126.15691
"Mr.","Edi","M. Pereira","Volunteer","edi.m.pereira@hotmail.com","+(670) 1026-1876","Timor-Leste Red Cross Society",,,,,"Maquelab","TL","Oecusse","Pante Macasar","Taiboco",-9.238,124.25602
"Mr.","Custodio","Liub","Volunteer","custodio.liub@gmail.com","+(670) 8137-6277","Timor-Leste Red Cross Society",,,,,"Manulete","TL","Liquiçá","Bazartete","Leorema",-8.68464,125.38961
"Ms.","Carlota","da Silva","Volunteer","carlota.dasilva@yahoo.com","+(670) 4886-3486","Timor-Leste Red Cross Society",,,,,"Manuoef","TL","Oecusse","Nitibe","Suni-Ufe",-9.28598,124.21128
"Mr.","Adelino","Pala","Volunteer","adelino.pala@hotmail.com","+(670) 5637-4901","Timor-Leste Red Cross Society",,,,,"Biarua","TL","Bobonaro","Atabae","Aidabaleten",-8.83809,125.15002
"Mr.","Joel","Rilo","Volunteer","joel.rilo@gmail.com","+(670) 1005-9205","Timor-Leste Red Cross Society",,,,,"Tulaiduk Bawah","TL","Covalima","Tilomar","Lalawa",-9.42358,125.11128
"Mr.","Agostinho","Rogerio","Volunteer","agostinho.rogerio@yahoo.com","+(670) 3102-8933","Timor-Leste Red Cross Society",,,,,"Baboro","TL","Baucau","Baucau","Seical",-8.48166,126.52038
"Mr.","Lucas","Bercamns","Volunteer","lucas.bercamns@hotmail.com","+(670) 5306-9190","Timor-Leste Red Cross Society",,,,,"Boelema","TL","Liquiçá","Liquiçá","Asumano",-8.67128,125.34213
"Ms.","Daniela","da Costa Mariz","Volunteer","daniela.dacostamariz@gmail.com","+(670) 5804-3812","Timor-Leste Red Cross Society",,,,,"Liarafa","TL","Baucau","Laga","Atelari",-8.54237,126.72014
"Ms.","Xanana","Marques","Volunteer","xanana.marques@yahoo.com","+(670) 6437-3800","Timor-Leste Red Cross Society",,,,,"Saharaitaurema","TL","Ermera","Letefoho","Eraulo",-8.8267,125.49028
"Mr.","Dominikus","de Almeida","Volunteer","dominikus.dealmeida@hotmail.com","+(670) 7283-9943","Timor-Leste Red Cross Society",,,,,"Maubisse","TL","Manufahi","Turiscai","Mindelo",-8.89637,125.70572
"Ms.","Emilio","F. Branco","Volunteer","emilio.f.branco@gmail.com","+(670) 3222-3533","Timor-Leste Red Cross Society",,,,,"Sorocama","TL","Baucau","Baguia","Alaua Craic",-8.6125,126.65972
"Mr.","Venancio","Xareal","Volunteer","venancio.xareal@yahoo.com","+(670) 8460-9786","Timor-Leste Red Cross Society",,,,,"Hatulialete","TL","Ermera","Hatolia","Urahou",-8.71689,125.29726
"Mr.","Duarte","Jaelani","Volunteer","duarte.jaelani@hotmail.com","+(670) 1155-8600","Timor-Leste Red Cross Society",,,,,"Pafuloain","TL","Viqueque","Watulari","Macadique",-8.83731,126.51925
"Mr.","Lino","da Costa","Volunteer","lino.dacosta@gmail.com","+(670) 7219-9130","Timor-Leste Red Cross Society",,,,,"Barolara","TL","Bobonaro","Cailaco","Meligo",-8.90972,125.2375
"Mr.","José","Brites","Volunteer","jose.brites@yahoo.com","+(670) 9886-5038","Timor-Leste Red Cross Society",,,,,"Oelnanoe","TL","Oecusse","Nitibe","Suni-Ufe",-9.24444,124.21667
"Mr.","Cipriano","Solposto","Volunteer","cipriano.solposto@hotmail.com","+(670) 7467-4505","Timor-Leste Red Cross Society",,,,,"Beraka","TL","Dili","Cristo Rei","Hera",-8.53889,125.68889
"Mr.","Quito","Pinto","Volunteer","quito.pinto@gmail.com","+(670) 4260-9294","Timor-Leste Red Cross Society",,,,,"Nunufu","TL","Manufahi","Same","Babulu",-9.01953,125.64415
"Mr.","Hermengildo","de Jesus","Volunteer","hermengildo.dejesus@yahoo.com","+(670) 7738-2852","Timor-Leste Red Cross Society",,,,,"Quintal Arbiro","TL","Dili","Nain Feto","Lahane Oriental",-8.56765,125.58541
"Mr.","Johanes","Goncalves","Volunteer","johanes.goncalves@hotmail.com","+(670) 8727-1415","Timor-Leste Red Cross Society",,,,,"Lebibo","TL","Ainaro","Maubisse","Edi",-8.84227,125.6114
"Mr.","Clementino","Barros dos Reis","Volunteer","clementino.barrosdosreis@gmail.com","+(670) 1826-8607","Timor-Leste Red Cross Society",,,,,"Lereira","TL","Lautém","Lautém","Maina II",-8.46828,126.88343
"Mr.","Noti","da Costa Oliveira","Volunteer","noti.dacostaoliveira@yahoo.com","+(670) 1704-3189","Timor-Leste Red Cross Society",,,,,"Falimano","TL","Ermera","Railaco","Fatuquero",-8.71218,125.44382
"Mr.","Edilirio","Amaral","Volunteer","edilirio.amaral@hotmail.com","+(670) 8185-6341","Timor-Leste Red Cross Society",,,,,"Fatunaba","TL","Dili","Vera Cruz","Dare",-8.59645,125.57873
"Mr.","Angelino","Zacarias","Volunteer","angelino.zacarias@gmail.com","+(670) 9309-9104","Timor-Leste Red Cross Society",,,,,"Reabuticeon","TL","Manatuto","Laclo","Hohorai",-8.58668,125.84349
"Mr.","Lourenco","Albuquequer","Volunteer","lourenco.albuquequer@yahoo.com","+(670) 6904-5016","Timor-Leste Red Cross Society",,,,,"Diaro","TL","Ermera","Hatolia","Hatolia",-8.81011,125.33611
"Mr.","Mario","Otilia","Volunteer","mario.otilia@hotmail.com","+(670) 9758-2319","Timor-Leste Red Cross Society",,,,,"Liabuta","TL","Viqueque","Uatucarbau","Loi Ulu",-8.68284,126.69754
"Mr.","Donato","Polainos","Volunteer","donato.polainos@gmail.com","+(670) 9643-3316","Timor-Leste Red Cross Society",,,,,"Gleno","TL","Ermera","Ermera","Riheu",-8.72375,125.43622
"Ms.","Joana","Macedo","Volunteer","joana.macedo@yahoo.com","+(670) 9786-4363","Timor-Leste Red Cross Society",,,,,"Aubaca","TL","Baucau","Baucau","Bucoli",-8.49006,126.35922
"Mr.","Francisco","Moises","Volunteer","francisco.moises@hotmail.com","+(670) 6598-4594","Timor-Leste Red Cross Society",,,,,"Malailada","TL","Lautém","Lautém","Baduro",-8.4448,126.89583
"Mr.","Sergio","Horta","Volunteer","sergio.horta@gmail.com","+(670) 2236-1990","Timor-Leste Red Cross Society",,,,,"Sauacassa","TL","Baucau","Quelicai","Lelalai",-8.67724,126.51614
"Ms.","Ercia","Gohan","Volunteer","ercia.gohan@yahoo.com","+(670) 4267-7184","Timor-Leste Red Cross Society",,,,,"Atahoc","TL","Manatuto","Manatuto","Cribas",-8.67516,125.99239
"Ms.","Telma","Ramos","Volunteer","telma.ramos@hotmail.com","+(670) 2200-3575","Timor-Leste Red Cross Society",,,,,"Quintapottegal","TL","Aileu","Aileu Vila","Aisirimou",-8.70189,125.57917
"Mr.","Durcelina","de Carvalho","Volunteer","durcelina.decarvalho@gmail.com","+(670) 9828-3251","Timor-Leste Red Cross Society",,,,,"Paihara","TL","Lautém","Lautém","Maina I",-8.40051,126.90989
"Mr.","Tomas","Fahik Batak","Volunteer","tomas.fahikbatak@yahoo.com","+(670) 8020-5541","Timor-Leste Red Cross Society",,,,,"Eroho","TL","Ermera","Ermera","Ponilala",-8.732,125.38031
"Mr.","Vidiana","Maia","Volunteer","vidiana.maia@hotmail.com","+(670) 7330-9401","Timor-Leste Red Cross Society",,,,,"Mataruak","TL","Dili","Dom Aleixo","Fatuhada",-8.54659,125.55091
"Ms.","Abril","Moio","Volunteer","abril.moio@gmail.com","+(670) 8163-7913","Timor-Leste Red Cross Society",,,,,"Lalulai","TL","Baucau","Laga","Samalari",-8.49722,126.67778
"Mr.","Augusto","Sereno","Volunteer","augusto.sereno@yahoo.com","+(670) 4241-3280","Timor-Leste Red Cross Society",,,,,"Lukulaulau","TL","Ermera","Hatolia","Ailelo",-8.81806,125.30833
"Ms.","Graciano","Gorette","Volunteer","graciano.gorette@hotmail.com","+(670) 5768-5570","Timor-Leste Red Cross Society",,,,,"Kaibair","TL","Liquiçá","Maubara","Vatuboro",-8.69224,125.14344
"Mr.","Domingos","Alex","Volunteer","domingos.alex@gmail.com","+(670) 8782-1461","Timor-Leste Red Cross Society",,,,,"Holak","TL","Bobonaro","Lolotoe","Deudet",-9.14235,125.27442
"Mr.","Abelito","Rodriques","Volunteer","abelito.rodriques@yahoo.com","+(670) 3060-5343","Timor-Leste Red Cross Society",,,,,"Turiscailau","TL","Manufahi","Turiscai","Liurai",-8.82822,125.73107
"Mr.","Agapito","da Cunha","Volunteer","agapito.dacunha@hotmail.com","+(670) 8675-1419","Timor-Leste Red Cross Society",,,,,"Betoria","TL","Viqueque","Uatucarbau","Irabin de Baixo",-8.74656,126.69775
"Mr.","Acacio","Mondego","Volunteer","acacio.mondego@gmail.com","+(670) 7886-2793","Timor-Leste Red Cross Society",,,,,"Raimera","TL","Ainaro","Maubisse","Edi",-8.85048,125.63194
"Mr.","Natalino","Paulo","Volunteer","natalino.paulo@yahoo.com","+(670) 9626-3371","Timor-Leste Red Cross Society",,,,,"Misi","TL","Bobonaro","Balibo","Balibo Vila",-8.96631,125.03749
"Ms.","Isabel","Rafael","Volunteer","isabel.rafael@hotmail.com","+(670) 9806-2247","Timor-Leste Red Cross Society",,,,,"Codo","TL","Lautém","Lautém","Maina II",-8.46687,126.8817
"Ms.","Beatriz","Gomes","Volunteer","beatriz.gomes@gmail.com","+(670) 2850-8401","Timor-Leste Red Cross Society",,,,,"Umaiuk","TL","Manatuto","Laleia","Haturalan",-8.54143,126.16211
"Mr.","Marcelino","da Vidigal","Volunteer","marcelino.davidigal@yahoo.com","+(670) 7908-9619","Timor-Leste Red Cross Society",,,,,"Iun","TL","Manatuto","Manatuto","Iliheu",-8.54369,125.94308
"Mr.","Marcelo","Jose da C.","Volunteer","marcelo.josedac@hotmail.com","+(670) 1684-8542","Timor-Leste Red Cross Society",,,,,"Iun","TL","Manatuto","Manatuto","Iliheu",-8.54369,125.94308
"Mr.","Justiano","Martins","Volunteer","justiano.martins@gmail.com","+(670) 8507-4421","Timor-Leste Red Cross Society",,,,,"Fatubesi","TL","Manufahi","Fatuberliu","Clacuc",-9.02896,125.99788
"Ms.","Soraia","dos Santos","Volunteer","soraia.dossantos@yahoo.com","+(670) 5950-7761","Timor-Leste Red Cross Society",,,,,"Maliubu","TL","Bobonaro","Bobonaro","Male-Ubu",-9.00121,125.3854
"Mr.","Lucio","Alves","Volunteer","lucio.alves@hotmail.com","+(670) 5168-2614","Timor-Leste Red Cross Society",,,,,"Haareme","TL","Bobonaro","Cailaco","Raiheu",-8.96935,125.29315
"Ms.","Clàudia","Saboga","Volunteer","claudia.saboga@gmail.com","+(670) 6883-6456","Timor-Leste Red Cross Society",,,,,"Korlule","TL","Bobonaro","Maliana","Ritabou",-8.93172,125.17764
"Ms.","Adriana","Batuca","Volunteer","adriana.batuca@yahoo.com","+(670) 3930-8799","Timor-Leste Red Cross Society",,,,,"Leododok","TL","Manatuto","Laclo","Lacumesac",-8.55301,125.90492
"Ms.","Elly","Noel Sila","Volunteer","elly.noelsila@hotmail.com","+(670) 9511-7383","Timor-Leste Red Cross Society",,,,,"Lekitei","TL","Ainaro","Maubisse","Maubisse",-8.85037,125.59092
"Mr.","Orlando","Ximenes","Volunteer","orlando.ximenes@gmail.com","+(670) 1140-9149","Timor-Leste Red Cross Society",,,,,"Waidua","TL","Baucau","Baucau","Samalari",-8.52827,126.4811
"Mr.","Yakobus","Quefi","Volunteer","yakobus.quefi@yahoo.com","+(670) 6738-2829","Timor-Leste Red Cross Society",,,,,"Tuturema","TL","Bobonaro","Cailaco","Atudara",-8.94878,125.28505
"Mr.","Abrao","Mali Mau","Volunteer","abrao.malimau@hotmail.com","+(670) 2671-6826","Timor-Leste Red Cross Society",,,,,"Nauleau","TL","Manatuto","Laclubar","Orlalan",-8.75417,125.957
"Ms.","Mariana","Zolo","Volunteer","mariana.zolo@gmail.com","+(670) 3629-9130","Timor-Leste Red Cross Society",,,,,"Boramba","TL","Ainaro","Hatu-Udo","Foho-ai-Lico",-9.11302,125.64772
"Mr.","Andreia","Gusmão","Volunteer","andreia.gusmao@yahoo.com","+(670) 6828-1734","Timor-Leste Red Cross Society",,,,,"Kalae","TL","Aileu","Laulara","Talitu",-8.61316,125.60576
"Ms.","Maria","de Araujo","Volunteer","maria.dearaujo@hotmail.com","+(670) 1436-9823","Timor-Leste Red Cross Society",,,,,"Galitas","TL","Covalima","Zumalai","Tashilin",-9.19728,125.42116
"Ms.","Mariano","Aparicio","Volunteer","mariano.aparicio@gmail.com","+(670) 6557-9877","Timor-Leste Red Cross Society",,,,,"Tukeu","TL","Aileu","Remexio","Maumeta",-8.67053,125.6552
"Mr.","Apolonius","Botelheiro","Volunteer","apolonius.botelheiro@yahoo.com","+(670) 7120-2255","Timor-Leste Red Cross Society",,,,,"Masilihu","TL","Dili","Atauro","Maquili",-8.29041,125.58532
"Mr.","Aleixo","Belo","Volunteer","aleixo.belo@hotmail.com","+(670) 7651-5404","Timor-Leste Red Cross Society",,,,,"Sabaama","TL","Covalima","Fatumean","Belulic Leten",-9.24583,125.02083
"Mr.","Erculano","Goveia Leite","Volunteer","erculano.goveialeite@gmail.com","+(670) 8652-5335","Timor-Leste Red Cross Society",,,,,"Tidibesse","TL","Ermera","Hatolia","Mau-Ubu",-8.71328,125.34809
"Ms.","Vanessa","Idalina","Volunteer","vanessa.idalina@yahoo.com","+(670) 5501-7613","Timor-Leste Red Cross Society",,,,,"Luli Bau","TL","Baucau","Venilale","Uaiolo",-8.67418,126.434
"Mr.","Eduarda","Nunes","Volunteer","eduarda.nunes@hotmail.com","+(670) 2418-5735","Timor-Leste Red Cross Society",,,,,"Laclo","TL","Manatuto","Laclo","Lacumesac",-8.55544,125.90885
"Ms.","Jessica","Cromos","Volunteer","jessica.cromos@gmail.com","+(670) 5857-1571","Timor-Leste Red Cross Society",,,,,"Meobola","TL","Oecusse","Pante Macasar","Nipani",-9.17833,124.47577
"Mr.","Manuel","Domingas","Volunteer","manuel.domingas@yahoo.com","+(670) 3145-4180","Timor-Leste Red Cross Society",,,,,"Marko","TL","Bobonaro","Cailaco","Meligo",-8.88202,125.20942
"Mr.","Marito","Cune","Volunteer","marito.cune@hotmail.com","+(670) 5992-3198","Timor-Leste Red Cross Society",,,,,"Pahiluha","TL","Ermera","Letefoho","Catrai Leten",-8.88087,125.41768
"Mr.","Martinho","Diamentino","Volunteer","martinho.diamentino@gmail.com","+(670) 8721-7814","Timor-Leste Red Cross Society",,,,,"Fatuhou","TL","Liquiçá","Bazartete","Leorema",-8.68251,125.36819
"Mr.","Leonito","Martins","Volunteer","leonito.martins@yahoo.com","+(670) 6840-5850","Timor-Leste Red Cross Society",,,,,"Nandikole","TL","Bobonaro","Lolotoe","Gildapil",-9.1201,125.2095
"Mr.","Antonio","Gouveia Leite","Volunteer","antonio.gouveialeite@hotmail.com","+(670) 8789-8506","Timor-Leste Red Cross Society",,,,,"Beto Barat","TL","Dili","Dom Aleixo","Comoro",-8.5512,125.52349
"Mr.","Afonso","Salvador","Volunteer","afonso.salvador@gmail.com","+(670) 3953-8523","Timor-Leste Red Cross Society",,,,,"Mauane","TL","Ermera","Railaco","Matata",-8.70239,125.38831
"Ms.","Liliana","Rosmaninho","Volunteer","liliana.rosmaninho@yahoo.com","+(670) 9315-3171","Timor-Leste Red Cross Society",,,,,"Uata Tefo","TL","Baucau","Baguia","Lari Sula",-8.65619,126.73014
"Ms.","Margarida","dos Santos Barros","Volunteer","margarida.dossantosbarros@hotmail.com","+(670) 4770-9647","Timor-Leste Red Cross Society",,,,,"Lisuabe","TL","Bobonaro","Cailaco","Meligo",-8.93034,125.23967
"Mr.","Agusto","Direitinho","Volunteer","agusto.direitinho@gmail.com","+(670) 9324-4885","Timor-Leste Red Cross Society",,,,,"Bunabiqui","TL","Lautém","Iliomar","Fuat",-8.70733,126.83811
"Mr.","Januario","Vicente","Volunteer","januario.vicente@yahoo.com","+(670) 4144-7761","Timor-Leste Red Cross Society",,,,,"Datolia","TL","Bobonaro","Balibo","Leolima",-8.90364,125.05085
"Mr.","Marcus","Salsinha Barreto","Volunteer","marcus.salsinhabarreto@hotmail.com","+(670) 9411-6857","Timor-Leste Red Cross Society",,,,,"Lassorolai","TL","Baucau","Quelicai","Laisorolai de Cima",-8.65756,126.53263
"Mr.","Abel","dos Santos","Volunteer","abel.dossantos@gmail.com","+(670) 8046-7015","Timor-Leste Red Cross Society",,,,,"Nunoti","TL","Baucau","Vemase","Loilubo",-8.5711,126.33683
"Ms.","Diana","Soares","Volunteer","diana.soares@yahoo.com","+(670) 3740-5256","Timor-Leste Red Cross Society",,,,,"Weono","TL","Bobonaro","Balibo","Cowa",-9.02704,124.95232
"Mr.","Goku","Xavier","Volunteer","goku.xavier@hotmail.com","+(670) 4428-4571","Timor-Leste Red Cross Society",,,,,"Alaua","TL","Baucau","Baguia","Alaua Leten",-8.62812,126.65557
"Mr.","Alegria","Matos","Volunteer","alegria.matos@gmail.com","+(670) 4933-5174","Timor-Leste Red Cross Society",,,,,"Ohobin","TL","Bobonaro","Bobonaro","Lourba",-9.0191,125.36539
"Ms.","Manuela","Hildeberto","Volunteer","manuela.hildeberto@yahoo.com","+(670) 7414-2196","Timor-Leste Red Cross Society",,,,,"Benoko","TL","Oecusse","Pante Macasar","Lalisuc",-9.25498,124.34691
"Mr.","Dinis","Fernandes Baptista","Volunteer","dinis.fernandesbaptista@hotmail.com","+(670) 1776-4380","Timor-Leste Red Cross Society",,,,,"Larmera","TL","Manatuto","Laclubar","Fatumaquerec",-8.72346,125.97739
"Mr.","Guido","Guterres","Volunteer","guido.guterres@gmail.com","+(670) 3896-6387","Timor-Leste Red Cross Society",,,,,"Urupadan","TL","Aileu","Liquidoe","Acubilitoho",-8.71235,125.66867
"Mr.","Miguel","Tilman","Volunteer","miguel.tilman@yahoo.com","+(670) 3500-5827","Timor-Leste Red Cross Society",,,,,"Afaloicai","TL","Baucau","Baguia","Afaloicai",-8.65833,126.61111
"Mr.","Carlito","Fatima Rebelo","Volunteer","carlito.fatimarebelo@hotmail.com","+(670) 6799-5820","Timor-Leste Red Cross Society",,,,,"Com","TL","Lautém","Lautém","Com",-8.35603,127.05642
"Mr.","Joao","Peneda","Volunteer","joao.peneda@gmail.com","+(670) 5699-6915","Timor-Leste Red Cross Society",,,,,"Acubira","TL","Bobonaro","Cailaco","Manapa",-8.96788,125.23007
"Mr.","Paulo","Barreto","Volunteer","paulo.barreto@yahoo.com","+(670) 1145-2313","Timor-Leste Red Cross Society",,,,,"Dualanok","TL","Bobonaro","Balibo","Leolima",-8.91302,125.09091
"Mr.","Josefa","Saboga","Volunteer","josefa.saboga@hotmail.com","+(670) 7085-8690","Timor-Leste Red Cross Society",,,,,"Uaineque","TL","Baucau","Baucau","Bahu",-8.46081,126.4308
"Mr.","Lauriano","Lafu","Volunteer","lauriano.lafu@gmail.com","+(670) 6343-2661","Timor-Leste Red Cross Society",,,,,"Tequino Mata","TL","Baucau","Laga","Tequino Mata",-8.47796,126.58655
"Ms.","Joana","Bruno","Volunteer","joana.bruno@yahoo.com","+(670) 7232-1815","Timor-Leste Red Cross Society",,,,,"Risso","TL","Manufahi","Turiscai","Caimauc",-8.82053,125.70317
"Mr.","Alcino","Maria","Volunteer","alcino.maria@hotmail.com","+(670) 7085-3742","Timor-Leste Red Cross Society",,,,,"Pisulara","TL","Bobonaro","Cailaco","Meligo",-8.91423,125.2219
"Mr.","Nuno","Dias Gomes","Volunteer","nuno.diasgomes@gmail.com","+(670) 8362-5846","Timor-Leste Red Cross Society",,,,,"Manusae","TL","Ermera","Letefoho","Ducurai",-8.82746,125.4564
"Mr.","Paul","Baptista","Volunteer","paul.baptista@yahoo.com","+(670) 2390-7622","Timor-Leste Red Cross Society",,,,,"Kapuas","TL","Viqueque","Uatucarbau","Uani Uma",-8.75913,126.65734
"Ms.","Alexandra","de Deus","Volunteer","alexandra.dedeus@hotmail.com","+(670) 5165-6500","Timor-Leste Red Cross Society",,,,,"Uaitoque","TL","Baucau","Venilale","Baha Mori",-8.60632,126.41282
"Ms.","Sirilia","Adevinha","Volunteer","sirilia.adevinha@gmail.com","+(670) 2845-2972","Timor-Leste Red Cross Society",,,,,"Merigi","TL","Ermera","Letefoho","Catrai Leten",-8.87526,125.41266
"Mr.","Nilton","Urbana","Volunteer","nilton.urbana@yahoo.com","+(670) 6999-8617","Timor-Leste Red Cross Society",,,,,"Galaimata","TL","Ermera","Atsabe","Leimea Leten",-8.8882,125.38398
"Ms.","Joaquim","Arriaga","Volunteer","joaquim.arriaga@hotmail.com","+(670) 7567-4793","Timor-Leste Red Cross Society",,,,,"Narlolo","TL","Ermera","Hatolia","Hatolia",-8.81961,125.35198
"Mr.","Felix","Hendrigue Pinto","Volunteer","felix.hendriguepinto@gmail.com","+(670) 5934-2711","Timor-Leste Red Cross Society",,,,,"Nuren","TL","Bobonaro","Balibo","Leohito",-9.01973,125.06044
"Mr.","Severina","Polido","Volunteer","severina.polido@yahoo.com","+(670) 6298-8402","Timor-Leste Red Cross Society",,,,,"Berluli","TL","Ermera","Ermera","Poetete",-8.73453,125.41031
"Mr.","Alvaro","Licinia","Volunteer","alvaro.licinia@hotmail.com","+(670) 4015-6948","Timor-Leste Red Cross Society",,,,,"Lauten","TL","Lautém","Lautém","Pairara",-8.36161,126.90577
"Mr.","Eugenio","Antonio Belo","Volunteer","eugenio.antoniobelo@gmail.com","+(670) 1654-9281","Timor-Leste Red Cross Society",,,,,"Klohor","TL","Covalima","Fohorem","Lactos",-9.25862,125.09403
"Mr.","Marcos","Vidigal dos Santos","Volunteer","marcos.vidigaldossantos@yahoo.com","+(670) 4429-3728","Timor-Leste Red Cross Society",,,,,"Vila Verde","TL","Dili","Vera Cruz","Vila Verde",-8.5579,125.56633
"Mr.","Basilio","Clara","Volunteer","basilio.clara@hotmail.com","+(670) 7366-6551","Timor-Leste Red Cross Society",,,,,"Fatobalon","TL","Manatuto","Barique/Natarbora","Manehat",-8.91371,125.97151
"Ms.","Rosa","Pedro Pinto","Volunteer","rosa.pedropinto@gmail.com","+(670) 9092-7898","Timor-Leste Red Cross Society",,,,,"Oalgomo","TL","Bobonaro","Bobonaro","Ai-Assa",-9.0625,125.33472
"Mr.","Estanislao","da Costa Belo","Volunteer","estanislao.dacostabelo@yahoo.com","+(670) 2756-9222","Timor-Leste Red Cross Society",,,,,"Uaiharabo'o","TL","Baucau","Vemase","Uatu-Lari",-8.56806,126.33521
"Ms.","Florinda","de Deus Gomes","Volunteer","florinda.dedeusgomes@hotmail.com","+(670) 9520-6462","Timor-Leste Red Cross Society",,,,,"Oges","TL","Covalima","Maucatar","Ogues",-9.26491,125.21452
"Ms.","Juliana","Helena","Volunteer","juliana.helena@gmail.com","+(670) 6896-7367","Timor-Leste Red Cross Society",,,,,"Rehatu","TL","Manatuto","Laclo","Hohorai",-8.58971,125.80375
"Ms.","Rita","Nunes","Volunteer","rita.nunes@yahoo.com","+(670) 8214-1261","Timor-Leste Red Cross Society",,,,,"Delubo","TL","Manufahi","Turiscai","Beremana",-8.85838,125.71757
"Mr.","Juvenal","Cardoso","Volunteer","juvenal.cardoso@hotmail.com","+(670) 9851-8650","Timor-Leste Red Cross Society",,,,,"Taolen","TL","Oecusse","Pante Macasar","Costa",-9.27681,124.40032
"Mr.","Jaime","Caldeira","Volunteer","jaime.caldeira@gmail.com","+(670) 3636-8213","Timor-Leste Red Cross Society",,,,,"Laiuru","TL","Manufahi","Same","Babulu",-9.02525,125.6535
"Mr.","Cesar","Uva","Volunteer","cesar.uva@yahoo.com","+(670) 2709-6460","Timor-Leste Red Cross Society",,,,,"Caraubalo","TL","Viqueque","Viqueque","Caraubalo",-8.85898,126.36353
"Mr.","Filomeno","Boavida","Volunteer","filomeno.boavida@hotmail.com","+(670) 6566-8990","Timor-Leste Red Cross Society",,,,,"Nuslao","TL","Oecusse","Pante Macasar","Bobocase",-9.27639,124.3625
"Mr.","George","Godinho","Volunteer","george.godinho@gmail.com","+(670) 2272-2940","Timor-Leste Red Cross Society",,,,,"Lurato","TL","Lautém","Iliomar","Cainliu",-8.66961,126.83194
"Mr.","Eli","Adevinha","Volunteer","eli.adevinha@yahoo.com","+(670) 1583-1033","Timor-Leste Red Cross Society",,,,,"Vila","TL","Dili","Atauro","Atauro Vila/Maumeta",-8.26368,125.60152
"Mr.","Sebastiao","Cabecinhas","Volunteer","sebastiao.cabecinhas@hotmail.com","+(670) 7541-5617","Timor-Leste Red Cross Society",,,,,"Fatuhou","TL","Liquiçá","Bazartete","Leorema",-8.68251,125.36819
"Mr.","Paulino","Elo","Volunteer","paulino.elo@gmail.com","+(670) 3800-1202","Timor-Leste Red Cross Society",,,,,"Carlilo","TL","Manatuto","Manatuto","Aiteas",-8.53368,126.00626
"Mr.","Guilherme","Pinto Soares","Volunteer","guilherme.pintosoares@yahoo.com","+(670) 9666-9580","Timor-Leste Red Cross Society",,,,,"Loribia","TL","Bobonaro","Maliana","Ritabou",-8.99015,125.28369
"Mr.","Heitor","Ximenes","Volunteer","heitor.ximenes@hotmail.com","+(670) 1444-5228","Timor-Leste Red Cross Society",,,,,"Oeto","TL","Manufahi","Alas","Dotic",-9.06026,125.93374
"Mr.","Sandra","Baros","Volunteer","sandra.baros@gmail.com","+(670) 1410-9750","Timor-Leste Red Cross Society",,,,,"Sabomata","TL","Manatuto","Laclo","Hohorai",-8.62912,125.78085
"Mr.","Apolinario","Palat","Volunteer","apolinario.palat@yahoo.com","+(670) 7908-3901","Timor-Leste Red Cross Society",,,,,"Manoroni","TL","Dili","Cristo Rei","Hera",-8.53889,125.68056
"Mr.","Kevin","Hugo","Volunteer","kevin.hugo@hotmail.com","+(670) 4237-6867","Timor-Leste Red Cross Society",,,,,"Gugulai","TL","Baucau","Quelicai","Guruca",-8.57917,126.6
"Mr.","Emidia","Magno Freitas","Volunteer","emidia.magnofreitas@gmail.com","+(670) 9852-7910","Timor-Leste Red Cross Society",,,,,"Nunudamar","TL","Aileu","Remexio","Tulataqueo",-8.61575,125.70937
"Mr.","Ruben","Duarte","Volunteer","ruben.duarte@yahoo.com","+(670) 7164-3116","Timor-Leste Red Cross Society",,,,,"Batas","TL","Manufahi","Same","Tutuluro",-8.93785,125.70554
"Mr.","Fernanda","Rente","Volunteer","fernanda.rente@hotmail.com","+(670) 2058-4852","Timor-Leste Red Cross Society",,,,,"Kaitara","TL","Ainaro","Maubisse","Fatu-Besi",-8.81253,125.61814
"Mr.","Moises","Bosco  Soares","Volunteer","moises.boscosoares@gmail.com","+(670) 8794-1533","Timor-Leste Red Cross Society",,,,,"Nubani","TL","Oecusse","Pante Macasar","Naimeco",-9.31427,124.40289
"Mr.","Luis","Moniz","Volunteer","luis.moniz@yahoo.com","+(670) 3743-7334","Timor-Leste Red Cross Society",,,,,"Oerbora","TL","Covalima","Zumalai","Raimea",-9.18803,125.50193
"Ms.","Mónica","de Jesus Alves","Volunteer","monica.dejesusalves@hotmail.com","+(670) 3171-2537","Timor-Leste Red Cross Society",,,,,"Loinuno","TL","Baucau","Vemase","Ossoala",-8.58454,126.33732
"Mr.","Cornelio","Pascoela","Volunteer","cornelio.pascoela@gmail.com","+(670) 2939-7646","Timor-Leste Red Cross Society",,,,,"Tatalalarin","TL","Lautém","Iliomar","Cainliu",-8.69137,126.81563
"Mr.","Catarina","M. Pereira","Volunteer","catarina.m.pereira@yahoo.com","+(670) 6585-9160","Timor-Leste Red Cross Society",,,,,"Oebola","TL","Bobonaro","Atabae","Atabae",-8.76443,125.19451
"Mr.","Celestino","Liub","Volunteer","celestino.liub@hotmail.com","+(670) 7583-6803","Timor-Leste Red Cross Society",,,,,"Mota Ulun","TL","Dili","Cristo Rei","Becora",-8.57308,125.6142
"Ms.","Meliana","da Silva","Volunteer","meliana.dasilva@gmail.com","+(670) 9950-8331","Timor-Leste Red Cross Society",,,,,"Vazetida Algar","TL","Liquiçá","Liquiçá","Leoteala",-8.66528,125.3316
"Mr.","Bonifacio","Pala","Volunteer","bonifacio.pala@yahoo.com","+(670) 3376-7245","Timor-Leste Red Cross Society",,,,,"Loribia","TL","Bobonaro","Maliana","Ritabou",-8.99015,125.28369
"Ms.","Sofia","Rilo","Volunteer","sofia.rilo@hotmail.com","+(670) 5652-6396","Timor-Leste Red Cross Society",,,,,"Pante Macasar","TL","Oecusse","Pante Macasar","Costa",-9.20282,124.36839
"Mr.","Julio","Rogerio","Volunteer","julio.rogerio@gmail.com","+(670) 9758-4842","Timor-Leste Red Cross Society",,,,,"Usafin","TL","Oecusse","Passabe","Abani",-9.46013,124.34585
"Ms.","Mafalda","Bercamns","Volunteer","mafalda.bercamns@yahoo.com","+(670) 7155-2783","Timor-Leste Red Cross Society",,,,,"Lukulaulau","TL","Ermera","Hatolia","Ailelo",-8.81806,125.30833
"Mr.","Herculano","da Costa Mariz","Volunteer","herculano.dacostamariz@hotmail.com","+(670) 5328-9240","Timor-Leste Red Cross Society",,,,,"Lari Sula","TL","Baucau","Baguia","Lari Sula",-8.65408,126.72809
"Ms.","Joaninha","Marques","Volunteer","joaninha.marques@gmail.com","+(670) 7862-5248","Timor-Leste Red Cross Society",,,,,"Saben","TL","Oecusse","Oesilo","Bobometo",-9.35407,124.37324
"Mr.","Marcos","de Almeida","Volunteer","marcos.dealmeida@yahoo.com","+(670) 4686-9019","Timor-Leste Red Cross Society",,,,,"Peumate","TL","Bobonaro","Atabae","Atabae",-8.83056,125.20278
"Mr.","Edi","F. Branco","Volunteer","edi.f.branco@hotmail.com","+(670) 6968-3864","Timor-Leste Red Cross Society",,,,,"Boboe","TL","Ermera","Ermera","Lauala",-8.75145,125.45377
"Mr.","Custodio","Xareal","Volunteer","custodio.xareal@gmail.com","+(670) 1358-9999","Timor-Leste Red Cross Society",,,,,"Fahilebu","TL","Manufahi","Turiscai","Beremana",-8.84815,125.72029
"Ms.","Carlota","Jaelani","Volunteer","carlota.jaelani@yahoo.com","+(670) 5500-2661","Timor-Leste Red Cross Society",,,,,"Sucatin","TL","Manatuto","Laclo","Lacumesac",-8.56464,125.89948
"Mr.","Adelino","da Costa","Volunteer","adelino.dacosta@hotmail.com","+(670) 5101-5421","Timor-Leste Red Cross Society",,,,,"Harare","TL","Bobonaro","Bobonaro","Malilait",-9.01092,125.32933
"Mr.","Joel","Brites","Volunteer","joel.brites@gmail.com","+(670) 9720-6680","Timor-Leste Red Cross Society",,,,,"Leguiloiuatu","TL","Baucau","Baucau","Triloca",-8.51089,126.3622
"Mr.","Agostinho","Solposto","Volunteer","agostinho.solposto@yahoo.com","+(670) 6670-4161","Timor-Leste Red Cross Society",,,,,"Aliatu","TL","Ermera","Atsabe","Paramin",-8.92701,125.40612
"Mr.","Lucas","Pinto","Volunteer","lucas.pinto@hotmail.com","+(670) 2186-8069","Timor-Leste Red Cross Society",,,,,"Berukulun","TL","Dili","Cristo Rei","Hera",-8.54722,125.67083
"Ms.","Daniela","de Jesus","Volunteer","daniela.dejesus@gmail.com","+(670) 6882-1080","Timor-Leste Red Cross Society",,,,,"Olekata","TL","Ermera","Atsabe","Leimea Leten",-8.89133,125.40147
"Ms.","Xanana","Goncalves","Volunteer","xanana.goncalves@yahoo.com","+(670) 1277-7301","Timor-Leste Red Cross Society",,,,,"Tatadere","TL","Viqueque","Uatucarbau","Afaloicai",-8.65512,126.65694
"Mr.","Dominikus","Barros dos Reis","Volunteer","dominikus.barrosdosreis@hotmail.com","+(670) 6802-6606","Timor-Leste Red Cross Society",,,,,"Fuiloro","TL","Lautém","Lospalos","Fuiloro",-8.50844,126.98987
"Ms.","Emilio","da Costa Oliveira","Volunteer","emilio.dacostaoliveira@gmail.com","+(670) 4434-9230","Timor-Leste Red Cross Society",,,,,"Lepulau","TL","Ainaro","Hatu-Builico","Nuno-Mogue",-8.94081,125.54089
"Mr.","Venancio","Amaral","Volunteer","venancio.amaral@yahoo.com","+(670) 1788-7540","Timor-Leste Red Cross Society",,,,,"Tepa","TL","Bobonaro","Lolotoe","Deudet",-9.13736,125.28589
"Mr.","Duarte","Zacarias","Volunteer","duarte.zacarias@hotmail.com","+(670) 2946-9589","Timor-Leste Red Cross Society",,,,,"Futuisin","TL","Covalima","Suai","Camenasa",-9.32178,125.2826
"Mr.","Lino","Albuquequer","Volunteer","lino.albuquequer@gmail.com","+(670) 7513-7984","Timor-Leste Red Cross Society",,,,,"Ailora","TL","Ainaro","Hatu-Udo","Foho-ai-Lico",-9.11379,125.64147
"Mr.","José","Otilia","Volunteer","jose.otilia@yahoo.com","+(670) 2354-2169","Timor-Leste Red Cross Society",,,,,"Vataomar","TL","Lautém","Iliomar","Fuat",-8.687,126.86009
"Mr.","Cipriano","Polainos","Volunteer","cipriano.polainos@hotmail.com","+(670) 6353-1291","Timor-Leste Red Cross Society",,,,,"Lisaico","TL","Liquiçá","Maubara","Lissadila",-8.66391,125.255
"Mr.","Quito","Macedo","Volunteer","quito.macedo@gmail.com","+(670) 9195-7369","Timor-Leste Red Cross Society",,,,,"Leber","TL","Bobonaro","Bobonaro","Leber",-9.075,125.25417
"Mr.","Hermengildo","Moises","Volunteer","hermengildo.moises@yahoo.com","+(670) 1220-7366","Timor-Leste Red Cross Society",,,,,"Palistela","TL","Liquiçá","Maubara","Gugleur",-8.65945,125.14304
"Mr.","Johanes","Horta","Volunteer","johanes.horta@hotmail.com","+(670) 1818-7033","Timor-Leste Red Cross Society",,,,,"Hahitali","TL","Ainaro","Maubisse","Manetu",-8.86265,125.65966
"Mr.","Clementino","Gohan","Volunteer","clementino.gohan@gmail.com","+(670) 5459-2349","Timor-Leste Red Cross Society",,,,,"Lookeu","TL","Covalima","Suai","Debos",-9.32318,125.24553
"Mr.","Noti","Ramos","Volunteer","noti.ramos@yahoo.com","+(670) 1805-1133","Timor-Leste Red Cross Society",,,,,"Pala","TL","Dili","Atauro","Biceli",-8.18391,125.62902
"Mr.","Edilirio","de Carvalho","Volunteer","edilirio.decarvalho@hotmail.com","+(670) 8584-6843","Timor-Leste Red Cross Society",,,,,"Vazetida Algar","TL","Liquiçá","Liquiçá","Leoteala",-8.66528,125.3316
"Mr.","Angelino","Fahik Batak","Volunteer","angelino.fahikbatak@gmail.com","+(670) 2725-1373","Timor-Leste Red Cross Society",,,,,"Renumata","TL","Ermera","Letefoho","Ducurai",-8.84105,125.45708
"Mr.","Lourenco","Maia","Volunteer","lourenco.maia@yahoo.com","+(670) 7843-6553","Timor-Leste Red Cross Society",,,,,"Fatuhada","TL","Dili","Dom Aleixo","Fatuhada",-8.55309,125.55593
"Mr.","Mario","Moio","Volunteer","mario.moio@hotmail.com","+(670) 3473-4941","Timor-Leste Red Cross Society",,,,,"Aitemua","TL","Ermera","Hatolia","Fatubolu",-8.75116,125.3582
"Mr.","Donato","Sereno","Volunteer","donato.sereno@gmail.com","+(670) 3126-9579","Timor-Leste Red Cross Society",,,,,"Ausur","TL","Ainaro","Hatu-udo","Leolima",-9.12902,125.57946
"Ms.","Joana","Gorette","Volunteer","joana.gorette@yahoo.com","+(670) 2128-3750","Timor-Leste Red Cross Society",,,,,"Dirihatilau","TL","Ermera","Hatolia","Asulau",-8.7463,125.24412
"Mr.","Francisco","Alex","Volunteer","francisco.alex@hotmail.com","+(670) 7079-4898","Timor-Leste Red Cross Society",,,,,"Ukbatan","TL","Oecusse","Oesilo","Bobometo",-9.39636,124.35915
"Mr.","Sergio","Rodriques","Volunteer","sergio.rodriques@gmail.com","+(670) 2666-3636","Timor-Leste Red Cross Society",,,,,"Nubadak","TL","Bobonaro","Balibo","Batugade",-8.94204,124.97816
"Ms.","Ercia","da Cunha","Volunteer","ercia.dacunha@yahoo.com","+(670) 9413-8285","Timor-Leste Red Cross Society",,,,,"Uebicas","TL","Manufahi","Fatuberliu","Clacuc",-9.01543,126.00625
"Ms.","Telma","Mondego","Volunteer","telma.mondego@hotmail.com","+(670) 3098-1843","Timor-Leste Red Cross Society",,,,,"Kaitcho","TL","Liquiçá","Bazartete","Motaulun",-8.56702,125.42626
"Mr.","Durcelina","Paulo","Volunteer","durcelina.paulo@gmail.com","+(670) 4048-2802","Timor-Leste Red Cross Society",,,,,"Soslodade","TL","Dili","Vera Cruz","Colmera",-8.55512,125.57259
"Mr.","Tomas","Rafael","Volunteer","tomas.rafael@yahoo.com","+(670) 6283-1557","Timor-Leste Red Cross Society",,,,,"Uaitalobu","TL","Baucau","Venilale","Uataco",-8.62891,126.38244
"Mr.","Vidiana","Gomes","Volunteer","vidiana.gomes@hotmail.com","+(670) 7517-6510","Timor-Leste Red Cross Society",,,,,"Bebunuk","TL","Dili","Dom Aleixo","Comoro",-8.54389,125.54306
"Ms.","Abril","da Vidigal","Volunteer","abril.davidigal@gmail.com","+(670) 3635-5922","Timor-Leste Red Cross Society",,,,,"Kiukle","TL","Oecusse","Oesilo","Bobometo",-9.31565,124.36902
"Mr.","Augusto","Jose da C.","Volunteer","augusto.josedac@yahoo.com","+(670) 2407-4875","Timor-Leste Red Cross Society",,,,,"Festou","TL","Baucau","Baucau","Seical",-8.53889,126.51667
"Ms.","Graciano","Martins","Volunteer","graciano.martins@hotmail.com","+(670) 8255-5456","Timor-Leste Red Cross Society",,,,,"Uaito Bonu","TL","Baucau","Venilale","Fatulia",-8.65311,126.36997
"Mr.","Domingos","dos Santos","Volunteer","domingos.dossantos@gmail.com","+(670) 8093-6945","Timor-Leste Red Cross Society",,,,,"Kampung Baru","TL","Manatuto","Laleia","Lifau",-8.50423,126.15691
"Mr.","Abelito","Alves","Volunteer","abelito.alves@yahoo.com","+(670) 9519-2480","Timor-Leste Red Cross Society",,,,,"Uatubela Oli","TL","Baucau","Venilale","Bado Ho'o",-8.60402,126.39672
"Mr.","Agapito","Saboga","Volunteer","agapito.saboga@hotmail.com","+(670) 8175-1209","Timor-Leste Red Cross Society",,,,,"Uatu Manuruku","TL","Viqueque","Ossu","Uaguia",-8.75683,126.41313
"Mr.","Acacio","Batuca","Volunteer","acacio.batuca@gmail.com","+(670) 4980-7200","Timor-Leste Red Cross Society",,,,,"Defadae","TL","Baucau","Quelicai","Macalaco",-8.58333,126.52222
"Mr.","Natalino","Noel Sila","Volunteer","natalino.noelsila@yahoo.com","+(670) 8096-5078","Timor-Leste Red Cross Society",,,,,"Malepun","TL","Bobonaro","Atabae","Aidabaleten",-8.85169,125.08665
"Ms.","Isabel","Ximenes","Volunteer","isabel.ximenes@hotmail.com","+(670) 2482-1535","Timor-Leste Red Cross Society",,,,,"Samalalo","TL","Baucau","Laga","Saelari",-8.48994,126.68592
"Ms.","Beatriz","Quefi","Volunteer","beatriz.quefi@gmail.com","+(670) 2027-8591","Timor-Leste Red Cross Society",,,,,"Lotan","TL","Bobonaro","Balibo","Batugade",-8.98042,125.00335
"Mr.","Marcelino","Mali Mau","Volunteer","marcelino.malimau@yahoo.com","+(670) 9233-6862","Timor-Leste Red Cross Society",,,,,"Sardoli","TL","Bobonaro","Bobonaro","Lourba",-9.00882,125.3602
"Mr.","Marcelo","Zolo","Volunteer","marcelo.zolo@hotmail.com","+(670) 8629-8026","Timor-Leste Red Cross Society",,,,,"Kaitcho","TL","Liquiçá","Bazartete","Motaulun",-8.56702,125.42626
"Mr.","Justiano","Gusmão","Volunteer","justiano.gusmao@gmail.com","+(670) 3859-6042","Timor-Leste Red Cross Society",,,,,"Raihun","TL","Bobonaro","Balibo","Balibo vila",-8.9774,125.05161
"Ms.","Soraia","de Araujo","Volunteer","soraia.dearaujo@yahoo.com","+(670) 5686-9973","Timor-Leste Red Cross Society",,,,,"Maina I","TL","Lautém","Lautém","Maina I",-8.39624,126.90853
"Mr.","Lucio","Aparicio","Volunteer","lucio.aparicio@hotmail.com","+(670) 5390-3595","Timor-Leste Red Cross Society",,,,,"Lio","TL","Aileu","Aileu Vila","Seloi Craic",-8.7129,125.52074
"Ms.","Clàudia","Botelheiro","Volunteer","claudia.botelheiro@gmail.com","+(670) 2882-6332","Timor-Leste Red Cross Society",,,,,"Kiukle","TL","Oecusse","Oesilo","Bobometo",-9.31565,124.36902
"Ms.","Adriana","Belo","Volunteer","adriana.belo@yahoo.com","+(670) 5225-3096","Timor-Leste Red Cross Society",,,,,"Ranac","TL","Manatuto","Barique/Natarbora","Abat Oan",-8.97295,126.06049
"Ms.","Elly","Goveia Leite","Volunteer","elly.goveialeite@hotmail.com","+(670) 5950-8823","Timor-Leste Red Cross Society",,,,,"Leuro","TL","Lautém","Lospalos","Souro",-8.52222,126.95139
"Mr.","Orlando","Idalina","Volunteer","orlando.idalina@gmail.com","+(670) 7072-3505","Timor-Leste Red Cross Society",,,,,"Fateran","TL","Aileu","Aileu Vila","Seloi Craic",-8.67835,125.54225
"Mr.","Yakobus","Nunes","Volunteer","yakobus.nunes@yahoo.com","+(670) 8829-5432","Timor-Leste Red Cross Society",,,,,"Uatolari","TL","Viqueque","Watulari","Babulo",-8.76294,126.57803
"Mr.","Abrao","Cromos","Volunteer","abrao.cromos@hotmail.com","+(670) 7941-6109","Timor-Leste Red Cross Society",,,,,"Hatokade","TL","Ainaro","Maubisse","Maulau",-8.78311,125.68618
"Ms.","Mariana","Domingas","Volunteer","mariana.domingas@gmail.com","+(670) 5460-1125","Timor-Leste Red Cross Society",,,,,"Manehat","TL","Viqueque","Viqueque","Caraubalo",-8.85746,126.36318
"Mr.","Andreia","Cune","Volunteer","andreia.cune@yahoo.com","+(670) 1139-3906","Timor-Leste Red Cross Society",,,,,"Builai","TL","Baucau","Baucau","Buibau",-8.5074,126.44456
"Ms.","Maria","Diamentino","Volunteer","maria.diamentino@hotmail.com","+(670) 9803-3455","Timor-Leste Red Cross Society",,,,,"Harolata","TL","Lautém","Lospalos","Lore I",-8.64368,127.01516
"Ms.","Mariano","Martins","Volunteer","mariano.martins@gmail.com","+(670) 9304-7923","Timor-Leste Red Cross Society",,,,,"Oebu","TL","Oecusse","Passabe","Abani",-9.46424,124.31634
"Mr.","Apolonius","Gouveia Leite","Volunteer","apolonius.gouveialeite@yahoo.com","+(670) 5721-9733","Timor-Leste Red Cross Society",,,,,"Fatulelo","TL","Manufahi","Turiscai","Foholau",-8.85658,125.75343
"Mr.","Aleixo","Salvador","Volunteer","aleixo.salvador@hotmail.com","+(670) 4916-9932","Timor-Leste Red Cross Society",,,,,"Laimata","TL","Lautém","Iliomar","Iliomar II",-8.73952,126.83659
"Mr.","Erculano","Rosmaninho","Volunteer","erculano.rosmaninho@gmail.com","+(670) 7968-2729","Timor-Leste Red Cross Society",,,,,"Kotohuinamo","TL","Ermera","Railaco","Railaco Leten",-8.6848,125.48763
"Ms.","Vanessa","dos Santos Barros","Volunteer","vanessa.dossantosbarros@yahoo.com","+(670) 7666-3442","Timor-Leste Red Cross Society",,,,,"Maudole","TL","Ainaro","Ainaro","Cassa",-9.12557,125.51859
"Mr.","Eduarda","Direitinho","Volunteer","eduarda.direitinho@hotmail.com","+(670) 8678-3625","Timor-Leste Red Cross Society",,,,,"Ainesi","TL","Manufahi","Fatuberliu","Fahinehan",-8.92258,125.75876
"Ms.","Jessica","Vicente","Volunteer","jessica.vicente@gmail.com","+(670) 2652-8204","Timor-Leste Red Cross Society",,,,,"Faut","TL","Oecusse","Oesilo","Bobometo",-9.30671,124.34798
"Mr.","Manuel","Salsinha Barreto","Volunteer","manuel.salsinhabarreto@yahoo.com","+(670) 5708-5718","Timor-Leste Red Cross Society",,,,,"Letemuno","TL","Baucau","Quelicai","Macalaco",-8.59432,126.53952
"Mr.","Marito","Marques","Volunteer","marito.marques@hotmail.com","+(670) 5423-2434","Timor-Leste Red Cross Society",,,,,"Lilitai","TL","Aileu","Remexio","Fadabloco",-8.67363,125.68143
"Mr.","Martinho","Soares","Volunteer","martinho.soares@gmail.com","+(670) 9971-7099","Timor-Leste Red Cross Society",,,,,"Leubasa","TL","Ermera","Letefoho","Lauana",-8.89275,125.42469
"Mr.","Leonito","Xavier","Volunteer","leonito.xavier@yahoo.com","+(670) 2712-8903","Timor-Leste Red Cross Society",,,,,"Karsabar","TL","Ainaro","Hatu-Udo","Foho-ai-Lico",-9.16547,125.65697
"Mr.","Antonio","Matos","Volunteer","antonio.matos@hotmail.com","+(670) 1328-5058","Timor-Leste Red Cross Society",,,,,"Cairiri","TL","Baucau","Baucau","Gariuai",-8.56579,126.38048
"Mr.","Afonso","Hildeberto","Volunteer","afonso.hildeberto@gmail.com","+(670) 9409-9756","Timor-Leste Red Cross Society",,,,,"Beto Timur","TL","Dili","Dom Aleixo","Comoro",-8.54812,125.53239
"Ms.","Liliana","Fernandes Baptista","Volunteer","liliana.fernandesbaptista@yahoo.com","+(670) 8014-9461","Timor-Leste Red Cross Society",,,,,"Cabirooan","TL","Viqueque","Viqueque","Caraubalo",-8.86904,126.36631
"Ms.","Margarida","Guterres","Volunteer","margarida.guterres@hotmail.com","+(670) 6673-5550","Timor-Leste Red Cross Society",,,,,"Umakerek","TL","Baucau","Baucau","Seical",-8.49412,126.51305
"Mr.","Agusto","Tilman","Volunteer","agusto.tilman@gmail.com","+(670) 1352-8856","Timor-Leste Red Cross Society",,,,,"Comaoli","TL","Viqueque","Uatucarbau","Uani Uma",-8.75537,126.67828
"Mr.","Januario","Fatima Rebelo","Volunteer","januario.fatimarebelo@yahoo.com","+(670) 6131-9262","Timor-Leste Red Cross Society",,,,,"Carabau","TL","Bobonaro","Bobonaro","Carabau",-9.01787,125.38241
"Mr.","Marcus","Peneda","Volunteer","marcus.peneda@hotmail.com","+(670) 2309-2861","Timor-Leste Red Cross Society",,,,,"Mata Doro","TL","Dili","Vera Cruz","Vila verde",-8.55861,125.56806
"Mr.","Abel","Barreto","Volunteer","abel.barreto@gmail.com","+(670) 8408-4089","Timor-Leste Red Cross Society",,,,,"Sonajak","TL","Oecusse","Nitibe","Lela-Ufe",-9.35018,124.27891
"Ms.","Diana","Saboga","Volunteer","diana.saboga@yahoo.com","+(670) 5844-3800","Timor-Leste Red Cross Society",,,,,"Foetete","TL","Ermera","Hatolia","Ailelo",-8.80417,125.30833
"Mr.","Goku","Lafu","Volunteer","goku.lafu@hotmail.com","+(670) 2892-9704","Timor-Leste Red Cross Society",,,,,"Builako","TL","Viqueque","Uatucarbau","Bahatata",-8.69042,126.71905
"Mr.","Alegria","Bruno","Volunteer","alegria.bruno@gmail.com","+(670) 2108-1523","Timor-Leste Red Cross Society",,,,,"Talioan","TL","Viqueque","Lacluta","Uma Tolu",-8.89291,126.22154
"Ms.","Manuela","Maria","Volunteer","manuela.maria@yahoo.com","+(670) 1972-7484","Timor-Leste Red Cross Society",,,,,"Maudole","TL","Ainaro","Ainaro","Cassa",-9.12557,125.51859
"Mr.","Dinis","Dias Gomes","Volunteer","dinis.diasgomes@hotmail.com","+(670) 3661-9070","Timor-Leste Red Cross Society",,,,,"Pokolo","TL","Liquiçá","Bazartete","Tibar",-8.61356,125.48362
"Mr.","Guido","Baptista","Volunteer","guido.baptista@gmail.com","+(670) 2336-4829","Timor-Leste Red Cross Society",,,,,"Manonia","TL","Bobonaro","Bobonaro","Colimau",-8.98749,125.38539
"Mr.","Miguel","de Deus","Volunteer","miguel.dedeus@yahoo.com","+(670) 4389-9008","Timor-Leste Red Cross Society",,,,,"Aimerahun","TL","Aileu","Remexio","Acumau",-8.61097,125.66808
"Mr.","Carlito","Adevinha","Volunteer","carlito.adevinha@hotmail.com","+(670) 3103-5996","Timor-Leste Red Cross Society",,,,,"Cautaranau","TL","Baucau","Vemase","Loilubo",-8.57447,126.33925
"Mr.","Joao","Urbana","Volunteer","joao.urbana@gmail.com","+(670) 4089-9577","Timor-Leste Red Cross Society",,,,,"Nunupu","TL","Ermera","Ermera","Ponilala",-8.72262,125.38134
"Mr.","Paulo","Arriaga","Volunteer","paulo.arriaga@yahoo.com","+(670) 8714-2535","Timor-Leste Red Cross Society",,,,,"Bubodefo","TL","Baucau","Laga","Samalari",-8.4845,126.66155
"Mr.","Josefa","Hendrigue Pinto","Volunteer","josefa.hendriguepinto@hotmail.com","+(670) 4663-4278","Timor-Leste Red Cross Society",,,,,"Kiubose","TL","Oecusse","Pante Macasar","Naimeco",-9.28548,124.37647
"Mr.","Lauriano","Polido","Volunteer","lauriano.polido@gmail.com","+(670) 7285-6277","Timor-Leste Red Cross Society",,,,,"Ailau","TL","Manufahi","Same","Tutuluro",-8.95034,125.70476
"Ms.","Joana","Licinia","Volunteer","joana.licinia@yahoo.com","+(670) 9991-3979","Timor-Leste Red Cross Society",,,,,"Rairema","TL","Ermera","Letefoho","Ducurai",-8.84912,125.4479
"Mr.","Alcino","Antonio Belo","Volunteer","alcino.antoniobelo@hotmail.com","+(670) 5548-2098","Timor-Leste Red Cross Society",,,,,"Marae","TL","Viqueque","Uatucarbau","Irabin de Cima",-8.69989,126.71176
"Mr.","Nuno","Vidigal dos Santos","Volunteer","nuno.vidigaldossantos@gmail.com","+(670) 7002-8191","Timor-Leste Red Cross Society",,,,,"Kuanakabun","TL","Oecusse","Pante Macasar","Taiboco",-9.2748,124.31623
"Mr.","Paul","Clara","Volunteer","paul.clara@yahoo.com","+(670) 1224-1148","Timor-Leste Red Cross Society",,,,,"Sisicolema","TL","Liquiçá","Liquiçá","Asumano",-8.69831,125.35257
"Ms.","Alexandra","Pedro Pinto","Volunteer","alexandra.pedropinto@hotmail.com","+(670) 2847-2216","Timor-Leste Red Cross Society",,,,,"Datina","TL","Manufahi","Same","Holarua",-8.93606,125.63105
"Ms.","Sirilia","da Costa Belo","Volunteer","sirilia.dacostabelo@gmail.com","+(670) 3383-3695","Timor-Leste Red Cross Society",,,,,"Zulo","TL","Covalima","Zumalai","Lepo",-9.10972,125.40833
"Mr.","Nilton","de Deus Gomes","Volunteer","nilton.dedeusgomes@yahoo.com","+(670) 3295-3523","Timor-Leste Red Cross Society",,,,,"Halimea","TL","Covalima","Tilomar","Lalawa",-9.34224,125.1139
"Ms.","Joaquim","Helena","Volunteer","joaquim.helena@hotmail.com","+(670) 1737-4152","Timor-Leste Red Cross Society",,,,,"Riamori","TL","Ermera","Letefoho","Haupu",-8.85768,125.43444
"Mr.","Felix","Nunes","Volunteer","felix.nunes@gmail.com","+(670) 7618-3412","Timor-Leste Red Cross Society",,,,,"Daulelo","TL","Bobonaro","Cailaco","Meligo",-8.87854,125.23523
"Mr.","Severina","Cardoso","Volunteer","severina.cardoso@yahoo.com","+(670) 4709-8348","Timor-Leste Red Cross Society",,,,,"Terubala","TL","Baucau","Laga","Saelari",-8.49078,126.69527
"Mr.","Alvaro","Pereira","Volunteer","alvaro.pereira@hotmail.com","+(670) 9066-9832","Timor-Leste Red Cross Society",,,,,"Ibuk","TL","Bobonaro","Lolotoe","Lebos",-9.14833,125.20085
"Mr.","Eugenio","Ojeda","Volunteer","eugenio.ojeda@gmail.com","+(670) 9849-8538","Timor-Leste Red Cross Society",,,,,"Bubuloma","TL","Baucau","Laga","Saelari",-8.48485,126.68813
"Mr.","Marcos","da Costa Lopes","Volunteer","marcos.dacostalopes@yahoo.com","+(670) 3310-8110","Timor-Leste Red Cross Society",,,,,"Iradarate","TL","Lautém","Iliomar","Iliomar I",-8.73918,126.85943
"Mr.","Basilio","de Oliveira","Volunteer","basilio.deoliveira@hotmail.com","+(670) 6067-8680","Timor-Leste Red Cross Society",,,,,"Uatoue","TL","Baucau","Baucau","Wailili",-8.56806,126.47639
"Ms.","Rosa","Sevinate","Volunteer","rosa.sevinate@gmail.com","+(670) 1067-8566","Timor-Leste Red Cross Society",,,,,"Lesu","TL","Ainaro","Hatu-Udo","Foho-ai-Lico",-9.11146,125.6199
"Mr.","Estanislao","Roleto","Volunteer","estanislao.roleto@yahoo.com","+(670) 7618-1916","Timor-Leste Red Cross Society",,,,,"Baulesiria","TL","Ermera","Letefoho","Catrai-Craic",-8.87913,125.4384
"Ms.","Florinda","Jose","Volunteer","florinda.jose@hotmail.com","+(670) 8504-1295","Timor-Leste Red Cross Society",,,,,"Uairiu","TL","Viqueque","Ossu","Ossu de Cima",-8.73803,126.3669
"Ms.","Juliana","Freitas","Volunteer","juliana.freitas@gmail.com","+(670) 8075-2943","Timor-Leste Red Cross Society",,,,,"Bok","TL","Bobonaro","Bobonaro","Bobonaro",-9.04167,125.34028
"Ms.","Rita","de Fatima","Volunteer","rita.defatima@yahoo.com","+(670) 8911-7795","Timor-Leste Red Cross Society",,,,,"Nubadak","TL","Dili","Nain Feto","Acadiru Hun",-8.55194,125.58944
"Mr.","Juvenal","Chilro","Volunteer","juvenal.chilro@hotmail.com","+(670) 7433-9324","Timor-Leste Red Cross Society",,,,,"Tumlero","TL","Ermera","Railaco","Railaco Leten",-8.67802,125.51139
"Mr.","Jaime","Palat","Volunteer","jaime.palat@gmail.com","+(670) 4652-1645","Timor-Leste Red Cross Society",,,,,"Benais","TL","Oecusse","Oesilo","Bobometo",-9.33848,124.36344
"Mr.","Cesar","Hugo","Volunteer","cesar.hugo@yahoo.com","+(670) 4311-1734","Timor-Leste Red Cross Society",,,,,"Simohei","TL","Ermera","Hatolia","Hatolia",-8.81701,125.32917
"Mr.","Filomeno","Magno Freitas","Volunteer","filomeno.magnofreitas@hotmail.com","+(670) 3240-2859","Timor-Leste Red Cross Society",,,,,"Kaikasa","TL","Liquiçá","Maubara","Lissadila",-8.67039,125.2122
"Mr.","George","Duarte","Volunteer","george.duarte@gmail.com","+(670) 3403-4604","Timor-Leste Red Cross Society",,,,,"Nunkolo","TL","Oecusse","Passabe","Abani",-9.46603,124.34478
"Mr.","Eli","Rente","Volunteer","eli.rente@yahoo.com","+(670) 5861-8438","Timor-Leste Red Cross Society",,,,,"Faiteno","TL","Oecusse","Pante Macasar","Cunha",-9.26361,124.35699
"Mr.","Sebastiao","Bosco  Soares","Volunteer","sebastiao.boscosoares@hotmail.com","+(670) 6328-4830","Timor-Leste Red Cross Society",,,,,"Motolari","TL","Lautém","Lospalos","Fuiloro",-8.51148,127.0031
"Mr.","Paulino","Moniz","Volunteer","paulino.moniz@gmail.com","+(670) 3159-5630","Timor-Leste Red Cross Society",,,,,"Metaluli","TL","Liquiçá","Bazartete","Metagou",-8.62222,125.36667
"Mr.","Guilherme","de Jesus Alves","Volunteer","guilherme.dejesusalves@yahoo.com","+(670) 5342-5625","Timor-Leste Red Cross Society",,,,,"Nanacuro","TL","Lautém","Lospalos","Souro",-8.53681,126.94262
"Mr.","Heitor","Pascoela","Volunteer","heitor.pascoela@hotmail.com","+(670) 5961-8840","Timor-Leste Red Cross Society",,,,,"Manucatilaten","TL","Ermera","Letefoho","Haupu",-8.84379,125.41653
"Mr.","Sandra","M. Pereira","Volunteer","sandra.m.pereira@gmail.com","+(670) 6337-3426","Timor-Leste Red Cross Society",,,,,"Kulumba","TL","Bobonaro","Bobonaro","Bobonaro",-9.04053,125.33691
"Mr.","Apolinario","Liub","Volunteer","apolinario.liub@yahoo.com","+(670) 8767-1796","Timor-Leste Red Cross Society",,,,,"Delesuvati","TL","Liquiçá","Maubara","Vaviquinia",-8.62917,125.17222
"Mr.","Kevin","da Silva","Volunteer","kevin.dasilva@hotmail.com","+(670) 1512-8079","Timor-Leste Red Cross Society",,,,,"Meta","TL","Oecusse","Passabe","Abani",-9.45471,124.33643
"Mr.","Emidia","Pala","Volunteer","emidia.pala@gmail.com","+(670) 7702-6665","Timor-Leste Red Cross Society",,,,,"Fauteso","TL","Oecusse","Oesilo","Bobometo",-9.39968,124.3561
"Mr.","Ruben","Rilo","Volunteer","ruben.rilo@yahoo.com","+(670) 8695-5650","Timor-Leste Red Cross Society",,,,,"Lakenu","TL","Manatuto","Laclubar","Manelima",-8.80927,125.91938
"Mr.","Fernanda","Rogerio","Volunteer","fernanda.rogerio@hotmail.com","+(670) 7215-9593","Timor-Leste Red Cross Society",,,,,"Patoke","TL","Oecusse","Pante Macasar","Taiboco",-9.28889,124.2625
"Mr.","Moises","Bercamns","Volunteer","moises.bercamns@gmail.com","+(670) 7561-3808","Timor-Leste Red Cross Society",,,,,"Muapitine","TL","Lautém","Lospalos","Muapitine",-8.51132,127.12342
"Mr.","Luis","da Costa Mariz","Volunteer","luis.dacostamariz@yahoo.com","+(670) 9902-6317","Timor-Leste Red Cross Society",,,,,"Samagata","TL","Baucau","Laga","Sagadati",-8.52344,126.69534
"Ms.","Mónica","Marques","Volunteer","monica.marques@hotmail.com","+(670) 3228-4713","Timor-Leste Red Cross Society",,,,,"Loohali","TL","Covalima","Fohorem","Fohoren",-9.28188,125.08489
"Mr.","Cornelio","de Almeida","Volunteer","cornelio.dealmeida@gmail.com","+(670) 2700-9683","Timor-Leste Red Cross Society",,,,,"Manunfena","TL","Oecusse","Pante Macasar","Lalisuc",-9.23979,124.34153
"Mr.","Catarina","F. Branco","Volunteer","catarina.f.branco@yahoo.com","+(670) 3718-7202","Timor-Leste Red Cross Society",,,,,"Kelisifu","TL","Liquiçá","Maubara","Vatuboro",-8.65358,125.11878
"Mr.","Celestino","Xareal","Volunteer","celestino.xareal@hotmail.com","+(670) 4447-1846","Timor-Leste Red Cross Society",,,,,"Boropai","TL","Lautém","Iliomar","Tirilolo",-8.69931,126.79609
"Ms.","Meliana","Jaelani","Volunteer","meliana.jaelani@gmail.com","+(670) 7472-5248","Timor-Leste Red Cross Society",,,,,"Masilihu","TL","Dili","Atauro","Maquili",-8.29041,125.58532
"Mr.","Bonifacio","da Costa","Volunteer","bonifacio.dacosta@yahoo.com","+(670) 3869-7317","Timor-Leste Red Cross Society",,,,,"Ilalein","TL","Viqueque","Watulari","Afaloicai",-8.70007,126.56998
"Ms.","Sofia","Brites","Volunteer","sofia.brites@hotmail.com","+(670) 3019-1552","Timor-Leste Red Cross Society",,,,,"Paslete","TL","Bobonaro","Cailaco","Atudara",-8.86579,125.22788
"Mr.","Julio","Solposto","Volunteer","julio.solposto@gmail.com","+(670) 9238-1297","Timor-Leste Red Cross Society",,,,,"Poros","TL","Lautém","Tutuala","Mehara",-8.42012,127.11174
"Ms.","Mafalda","Pinto","Volunteer","mafalda.pinto@yahoo.com","+(670) 6827-1078","Timor-Leste Red Cross Society",,,,,"Taimea","TL","Bobonaro","Bobonaro","Malilait",-9.01939,125.32441
"Mr.","Herculano","de Jesus","Volunteer","herculano.dejesus@hotmail.com","+(670) 3094-6460","Timor-Leste Red Cross Society",,,,,"Lailima","TL","Ainaro","Ainaro","Cassa",-9.13619,125.54041
"Ms.","Joaninha","Goncalves","Volunteer","joaninha.goncalves@gmail.com","+(670) 1326-9396","Timor-Leste Red Cross Society",,,,,"Arlo","TL","Dili","Atauro","Beloi",-8.17778,125.59028
"Mr.","Marcos","Barros dos Reis","Volunteer","marcos.barrosdosreis@yahoo.com","+(670) 3724-2259","Timor-Leste Red Cross Society",,,,,"Laimata","TL","Lautém","Iliomar","Iliomar II",-8.73952,126.83659
"Mr.","Edi","da Costa Oliveira","Volunteer","edi.dacostaoliveira@hotmail.com","+(670) 6533-3311","Timor-Leste Red Cross Society",,,,,"Kailatulale","TL","Viqueque","Ossu","Loi-Huno",-8.78139,126.37791
"Mr.","Custodio","Amaral","Volunteer","custodio.amaral@gmail.com","+(670) 4803-6395","Timor-Leste Red Cross Society",,,,,"Kolimali","TL","Ermera","Atsabe","Baboi Craic",-8.91736,125.41824
"Ms.","Carlota","Zacarias","Volunteer","carlota.zacarias@yahoo.com","+(670) 7104-1524","Timor-Leste Red Cross Society",,,,,"Nunuhle","TL","Oecusse","Pante Macasar","Naimeco",-9.28611,124.37778
"Mr.","Adelino","Albuquequer","Volunteer","adelino.albuquequer@hotmail.com","+(670) 2659-3670","Timor-Leste Red Cross Society",,,,,"Boboe","TL","Ermera","Ermera","Lauala",-8.75145,125.45377
"Mr.","Joel","Otilia","Volunteer","joel.otilia@gmail.com","+(670) 2883-3073","Timor-Leste Red Cross Society",,,,,"Lari Sula","TL","Baucau","Baguia","Lari Sula",-8.63504,126.73152
"Mr.","Agostinho","Polainos","Volunteer","agostinho.polainos@yahoo.com","+(670) 3761-8921","Timor-Leste Red Cross Society",,,,,"Riatu","TL","Manufahi","Same","Daisua",-9.09201,125.69256
"Mr.","Lucas","Macedo","Volunteer","lucas.macedo@hotmail.com","+(670) 9970-8731","Timor-Leste Red Cross Society",,,,,"Bahatata","TL","Baucau","Baguia","Haeconi",-8.63889,126.6375
"Ms.","Daniela","Moises","Volunteer","daniela.moises@gmail.com","+(670) 8669-7289","Timor-Leste Red Cross Society",,,,,"Mehara","TL","Lautém","Tutuala","Mehara",-8.39468,127.18705
"Ms.","Xanana","Horta","Volunteer","xanana.horta@yahoo.com","+(670) 1758-3247","Timor-Leste Red Cross Society",,,,,"Tapo","TL","Bobonaro","Lolotoe","Lupal",-9.16061,125.29377
"Mr.","Dominikus","Gohan","Volunteer","dominikus.gohan@hotmail.com","+(670) 6222-8083","Timor-Leste Red Cross Society",,,,,"Nunu Docu","TL","Baucau","Venilale","Uma Ana Ilo",-8.58285,126.38956
"Ms.","Emilio","Ramos","Volunteer","emilio.ramos@gmail.com","+(670) 5009-8576","Timor-Leste Red Cross Society",,,,,"Dirularan","TL","Bobonaro","Atabae","Atabae",-8.83281,125.20044
"Mr.","Venancio","de Carvalho","Volunteer","venancio.decarvalho@yahoo.com","+(670) 8884-3732","Timor-Leste Red Cross Society",,,,,"Fatukabelak","TL","Ainaro","Hatu-Udo","Foho-ai-Lico",-9.1491,125.66192
"Mr.","Duarte","Fahik Batak","Volunteer","duarte.fahikbatak@hotmail.com","+(670) 4359-2876","Timor-Leste Red Cross Society",,,,,"Vatumori","TL","Liquiçá","Maubara","Gugleur",-8.67361,125.16433
"Mr.","Lino","Maia","Volunteer","lino.maia@gmail.com","+(670) 1817-5340","Timor-Leste Red Cross Society",,,,,"Enelaran","TL","Bobonaro","Atabae","Aodabaleten",-8.82812,125.06601
"Mr.","José","Moio","Volunteer","jose.moio@yahoo.com","+(670) 2561-6577","Timor-Leste Red Cross Society",,,,,"Aosnak","TL","Oecusse","Pante Macasar","Nipani",-9.18225,124.40678
"Mr.","Cipriano","Sereno","Volunteer","cipriano.sereno@hotmail.com","+(670) 4012-2569","Timor-Leste Red Cross Society",,,,,"Assalaino","TL","Lautém","Lospalos","Bauro",-8.43553,127.00452
"Mr.","Quito","Gorette","Volunteer","quito.gorette@gmail.com","+(670) 8531-7101","Timor-Leste Red Cross Society",,,,,"Uai-Mata","TL","Baucau","Baguia","Afaloicai",-8.66637,126.61132
"Mr.","Hermengildo","Alex","Volunteer","hermengildo.alex@yahoo.com","+(670) 6719-6600","Timor-Leste Red Cross Society",,,,,"Nunenau","TL","Oecusse","Pante Macasar","Cunha",-9.26275,124.33314
"Mr.","Johanes","Rodriques","Volunteer","johanes.rodriques@hotmail.com","+(670) 2209-3525","Timor-Leste Red Cross Society",,,,,"Benoko","TL","Oecusse","Pante Macasar","Lalisuc",-9.25498,124.34691
"Mr.","Clementino","da Cunha","Volunteer","clementino.dacunha@gmail.com","+(670) 2370-4287","Timor-Leste Red Cross Society",,,,,"Kuanatui","TL","Oecusse","Pante Macasar","Taiboco",-9.2904,124.30572
"Mr.","Noti","Mondego","Volunteer","noti.mondego@yahoo.com","+(670) 8444-6547","Timor-Leste Red Cross Society",,,,,"Siralari","TL","Viqueque","Viqueque","Caraubalo",-8.85501,126.36315
"Mr.","Edilirio","Paulo","Volunteer","edilirio.paulo@hotmail.com","+(670) 1835-2176","Timor-Leste Red Cross Society",,,,,"Bertai","TL","Ainaro","Maubisse","Suco Liurai",-8.8471,125.53022
"Mr.","Angelino","Rafael","Volunteer","angelino.rafael@gmail.com","+(670) 9131-2372","Timor-Leste Red Cross Society",,,,,"Fatubesi","TL","Manufahi","Fatuberliu","Clacuc",-9.02896,125.99788
"Mr.","Lourenco","Gomes","Volunteer","lourenco.gomes@yahoo.com","+(670) 6978-6311","Timor-Leste Red Cross Society",,,,,"Mopo","TL","Oecusse","Pante Macasar","Nipani",-9.1794,124.46894
"Mr.","Mario","da Vidigal","Volunteer","mario.davidigal@hotmail.com","+(670) 7129-9739","Timor-Leste Red Cross Society",,,,,"Aumodok","TL","Bobonaro","Balibo","Batugade",-8.95789,124.98327
"Mr.","Donato","Jose da C.","Volunteer","donato.josedac@gmail.com","+(670) 8991-3933","Timor-Leste Red Cross Society",,,,,"Fahilacor","TL","Manatuto","Laclo","Uma Naruc",-8.65412,125.79612
"Ms.","Joana","Martins","Volunteer","joana.martins@yahoo.com","+(670) 4613-9909","Timor-Leste Red Cross Society",,,,,"Tunomanu","TL","Aileu","Remexio","Fadabloco",-8.6649,125.69472
"Mr.","Francisco","dos Santos","Volunteer","francisco.dossantos@hotmail.com","+(670) 3688-3079","Timor-Leste Red Cross Society",,,,,"Sidodadi","TL","Lautém","Lospalos","Fuiloro",-8.51667,127.00139
"Mr.","Sergio","Alves","Volunteer","sergio.alves@gmail.com","+(670) 2183-3867","Timor-Leste Red Cross Society",,,,,"Poelau","TL","Ainaro","Ainaro","Soro",-8.99675,125.51795
"Ms.","Ercia","Saboga","Volunteer","ercia.saboga@yahoo.com","+(670) 9409-7311","Timor-Leste Red Cross Society",,,,,"Anilumu","TL","Manufahi","Same","Holarua",-8.92191,125.64766
"Ms.","Telma","Batuca","Volunteer","telma.batuca@hotmail.com","+(670) 8778-2829","Timor-Leste Red Cross Society",,,,,"Larimuta","TL","Baucau","Quelicai","Macalaco",-8.58333,126.51389
"Mr.","Durcelina","Noel Sila","Volunteer","durcelina.noelsila@gmail.com","+(670) 8971-5404","Timor-Leste Red Cross Society",,,,,"Daradobi","TL","Viqueque","Watulari","Vessoru",-8.76665,126.65327
"Mr.","Tomas","Ximenes","Volunteer","tomas.ximenes@yahoo.com","+(670) 9997-6285","Timor-Leste Red Cross Society",,,,,"Gugulai","TL","Baucau","Quelicai","Guruca",-8.57917,126.6
"Mr.","Vidiana","Quefi","Volunteer","vidiana.quefi@hotmail.com","+(670) 9293-1204","Timor-Leste Red Cross Society",,,,,"Menoah","TL","Oecusse","Pante Macasar","Cunha",-9.26111,124.35139
"Ms.","Abril","Mali Mau","Volunteer","abril.malimau@gmail.com","+(670) 7456-9239","Timor-Leste Red Cross Society",,,,,"Kolehunu","TL","Ainaro","Maubisse","Aitutu",-8.85946,125.59444
"Mr.","Augusto","Zolo","Volunteer","augusto.zolo@yahoo.com","+(670) 7521-6453","Timor-Leste Red Cross Society",,,,,"Mantelau","TL","Ainaro","Ainaro","Manutasi",-8.97715,125.5165
"Ms.","Graciano","Gusmão","Volunteer","graciano.gusmao@hotmail.com","+(670) 4015-8644","Timor-Leste Red Cross Society",,,,,"Lugassa","TL","Viqueque","Viqueque","Uma Uain Leten",-8.86736,126.5075
"Mr.","Domingos","de Araujo","Volunteer","domingos.dearaujo@gmail.com","+(670) 1924-1160","Timor-Leste Red Cross Society",,,,,"Samalaculiba","TL","Baucau","Baucau","Buibau",-8.50089,126.44677
"Mr.","Abelito","Aparicio","Volunteer","abelito.aparicio@yahoo.com","+(670) 3413-3788","Timor-Leste Red Cross Society",,,,,"Holgen","TL","Bobonaro","Bobonaro","Oe-Leu",-9.02886,125.28704
